timestamp,depth,roll,pitch,yaw,vertical_acceleration,depth_beneath_rov,Depth_below_Transducer_depth_in_M
1618745896.1806896,0.5,3.28,4.13,-122.64,10.28,20.3,18.7
1618745896.2836874,0.5,3.28,4.13,-122.64,10.33,20.3,18.7
1618745896.3796926,0.5,3.28,4.13,-122.64,10.33,20.31,18.7
1618745896.4916856,0.5,3.28,3.92,-122.64,10.33,20.31,18.7
1618745896.5866916,0.4,3.28,3.92,-122.34,10.32,20.31,18.7
1618745896.6826909,0.4,3.28,3.92,-122.34,10.32,20.28,18.7
1618745896.778715,0.4,3.53,3.52,-122.34,10.32,20.28,18.7
1618745896.8747013,0.4,3.53,3.52,-123.6,10.12,20.28,18.7
1618745896.9546988,0.4,3.53,3.52,-123.6,10.12,20.28,18.7
1618745897.0506911,0.4,3.53,3.52,-123.6,10.12,20.28,18.7
1618745897.145695,0.4,4.24,3.52,-123.6,10.12,20.23,18.7
1618745897.2416906,0.4,4.24,4.01,-123.36,10.12,20.23,18.7
1618745897.3496983,0.5,4.24,4.01,-123.36,10.06,20.23,18.7
1618745897.4596953,0.5,3.7,4.01,-123.36,10.06,20.28,18.7
1618745897.5546966,0.5,3.7,3.73,-122.9,10.06,20.28,18.7
1618745897.665689,0.4,3.7,3.73,-122.9,10.2,20.28,18.7
1618745897.7586942,0.4,3.7,3.73,-122.9,10.2,20.35,18.7
1618745897.8677325,0.4,3.28,3.26,-122.9,10.2,20.35,18.7
1618745897.962693,0.5,3.28,3.26,-121.88,10.24,20.35,18.7
1618745898.057702,0.5,3.28,3.26,-121.88,10.24,20.35,18.7
1618745898.1517265,0.5,3.09,3.26,-121.88,10.24,20.4,18.7
1618745898.2457342,0.5,3.09,4.01,-122.85,10.16,20.4,18.7
1618745898.3407197,0.5,3.09,4.01,-122.85,10.16,20.4,18.7
1618745898.419698,0.5,3.09,4.01,-122.85,10.16,20.4,18.7
1618745898.5146952,0.5,3.33,4.01,-122.85,10.16,20.36,18.7
1618745898.6106992,0.5,3.33,4.01,-119.14,10.16,20.36,18.7
1618745898.7067,0.4,3.33,4.01,-119.14,10.29,20.36,18.7
1618745898.8176908,0.4,4.44,4.01,-119.14,10.29,20.28,18.7
1618745898.9286995,0.4,4.44,3.74,-146.46,10.29,20.28,18.7
1618745899.0237737,0.4,4.44,3.74,-146.46,10.32,20.28,18.7
1618745899.1187723,0.4,4.44,3.74,-146.46,10.32,20.19,18.7
1618745899.2137692,0.4,3.51,3.9,172.44,10.32,20.19,18.7
1618745899.2907665,0.4,3.51,3.9,172.44,10.32,20.19,18.7
1618745899.3847725,0.5,3.51,3.9,172.44,10.32,20.19,18.7
1618745899.4797683,0.5,3.51,3.9,172.44,10.32,20.17,18.7
1618745899.5747697,0.5,3.09,3.77,-156.83,10.32,20.17,18.7
1618745899.6687734,0.5,3.09,3.77,-156.83,10.08,20.17,18.7
1618745899.7637708,0.5,3.09,3.77,-156.83,10.08,20.31,18.7
1618745899.8567686,0.5,3.35,3.54,-156.83,10.08,20.31,18.7
1618745899.9517732,0.5,3.35,3.54,173.39,10.12,20.31,18.7
1618745900.046773,0.5,3.35,3.54,173.39,10.12,20.31,18.7
1618745900.1427698,0.5,3.35,3.54,173.39,10.12,20.32,18.7
1618745900.2367697,0.5,3.35,3.54,173.39,10.12,20.32,18.7
1618745900.3317685,0.5,3.35,3.93,-163.59,10.12,20.32,18.7
1618745900.4257686,0.5,3.35,3.93,-163.59,10.24,20.32,18.7
1618745900.5218215,0.5,3.35,3.93,-163.59,10.24,20.33,18.7
1618745900.6167808,0.5,3.69,3.73,-163.59,10.24,20.33,18.7
1618745900.7108054,0.5,3.69,3.73,-157.93,10.35,20.33,18.7
1618745900.805807,0.5,3.69,3.73,-157.93,10.35,20.33,18.7
1618745900.9008067,0.5,2.88,3.76,-157.93,10.35,20.45,18.7
1618745900.9957714,0.5,2.88,3.76,178.1,10.2,20.45,18.7
1618745901.0927737,0.5,2.88,3.76,178.1,10.2,20.45,18.7
1618745901.186776,0.5,3.84,3.76,178.1,10.2,20.43,18.7
1618745901.2807693,0.5,3.84,3.76,178.1,10.2,20.43,18.7
1618745901.3767936,0.5,3.84,3.58,-157.75,10.2,20.43,18.7
1618745901.4727802,0.6,3.84,3.58,-157.75,10.12,20.43,18.7
1618745901.567773,0.6,3.84,3.58,-157.75,10.12,20.51,18.7
1618745901.6627724,0.6,4.0,3.77,-163.49,10.12,20.51,18.7
1618745901.7587793,0.5,4.0,3.77,-163.49,10.24,20.51,18.7
1618745901.8527703,0.5,4.0,3.77,-163.49,10.24,20.51,18.7
1618745901.946775,0.5,3.29,3.74,-163.49,10.24,20.51,18.7
1618745902.040776,0.5,3.29,3.74,-163.62,10.2,20.51,18.7
1618745902.1367738,0.5,3.29,3.74,-163.62,10.2,20.51,18.7
1618745902.2307723,0.4,3.29,3.74,-163.62,10.2,20.51,18.7
1618745902.3267698,0.4,2.87,3.74,-163.62,10.2,20.36,18.7
1618745902.4227712,0.4,2.87,3.74,-146.22,10.24,20.36,18.7
1618745902.51877,0.4,2.87,3.74,-146.22,10.24,20.36,18.7
1618745902.6147687,0.4,3.07,3.74,-146.22,10.24,20.27,18.7
1618745902.7107694,0.4,3.07,4.23,-172.72,10.24,20.27,18.7
1618745902.8037763,0.4,3.07,4.23,-172.72,10.16,20.27,18.7
1618745902.8988042,0.4,3.07,4.23,-172.72,10.16,20.21,18.7
1618745902.9927711,0.4,3.07,4.23,-172.72,10.16,20.21,18.7
1618745903.087783,0.4,3.75,3.74,-120.72,10.16,20.21,18.7
1618745903.1817687,0.6,3.75,3.74,-120.72,10.21,20.21,18.7
1618745903.275841,0.6,3.75,3.74,-120.72,10.21,20.24,18.7
1618745903.3697681,0.6,3.28,3.33,-120.72,10.21,20.24,18.7
1618745903.4647734,0.5,3.28,3.33,-120.72,10.21,20.24,18.7
1618745903.5597737,0.5,3.28,3.33,-120.72,10.21,20.3,18.7
1618745903.6547928,0.5,2.42,3.99,-120.72,10.21,20.3,18.7
1618745903.7487788,0.5,2.42,3.99,-177.56,10.16,20.3,18.7
1618745903.8438106,0.5,2.42,3.99,-177.56,10.16,20.3,18.7
1618745903.9398093,0.5,2.42,3.99,-177.56,10.16,20.4,18.7
1618745904.0337803,0.5,3.75,4.38,-177.56,10.16,20.4,18.7
1618745904.1287677,0.5,3.75,4.38,-176.85,10.2,20.4,18.7
1618745904.222772,0.5,3.75,4.38,-176.85,10.2,20.5,18.7
1618745904.3187678,0.5,3.97,3.29,-176.85,10.2,20.5,18.7
1618745904.4127672,0.5,3.97,3.29,-173.17,10.2,20.5,18.7
1618745904.505855,0.5,3.97,3.29,-173.17,10.2,20.5,18.7
1618745904.6018503,0.5,3.95,3.74,-173.17,10.2,20.48,18.7
1618745904.7108572,0.5,3.95,3.74,-156.92,10.22,20.48,18.7
1618745904.804878,0.5,3.95,3.74,-156.92,10.22,20.48,18.7
1618745904.8998532,0.5,3.95,3.74,-156.92,10.22,20.48,18.7
1618745904.9948504,0.5,3.95,3.74,-156.92,10.22,20.53,18.7
1618745905.0898895,0.5,3.32,4.2,-157.86,10.22,20.53,18.7
1618745905.1838887,0.0,3.32,4.2,-157.86,10.16,20.53,18.7
1618745905.2788506,0.0,3.32,4.2,-157.86,10.16,20.63,18.7
1618745905.3728487,0.0,3.32,3.74,-128.93,10.16,20.63,18.7
1618745905.4668486,0.5,3.32,3.74,-128.93,10.24,20.63,18.7
1618745905.5608559,0.5,3.32,3.74,-128.93,10.24,20.63,18.7
1618745905.6558495,0.5,3.32,3.74,-128.93,10.24,20.55,18.7
1618745905.751852,0.5,3.97,3.52,-128.93,10.24,20.55,18.7
1618745905.8468575,0.4,3.97,3.52,-128.46,10.17,20.55,18.7
1618745905.942854,0.4,3.97,3.52,-128.46,10.17,20.55,18.7
1618745906.0368543,0.4,3.54,4.23,-128.46,10.17,20.55,18.7
1618745906.130876,0.4,3.54,4.23,-131.46,10.16,20.55,18.7
1618745906.2258608,0.4,3.54,4.23,-131.46,10.16,20.56,18.7
1618745906.3218625,0.4,3.54,4.23,-131.46,10.16,20.56,18.7
1618745906.415853,0.4,3.31,4.18,-131.46,10.16,20.56,18.7
1618745906.5098598,0.4,3.31,4.18,-128.55,10.24,20.56,18.7
1618745906.605852,0.4,3.31,4.18,-128.55,10.24,20.56,18.7
1618745906.7008502,0.4,3.53,3.73,-128.55,10.24,20.46,18.7
1618745906.7962337,0.4,3.53,3.73,-126.93,10.21,20.46,18.7
1618745906.8928607,0.5,3.53,3.73,-126.93,10.21,20.46,18.7
1618745906.9888809,0.5,3.11,3.77,-126.93,10.21,20.39,18.7
1618745907.0848718,0.5,3.11,3.77,-129.97,10.04,20.39,18.7
1618745907.1788716,0.5,3.11,3.77,-129.97,10.04,20.39,18.7
1618745907.2738662,0.4,3.11,3.77,-129.97,10.04,20.39,18.7
1618745907.3838484,0.4,3.97,3.77,-129.97,10.04,20.41,18.7
1618745907.4778528,0.4,3.97,3.95,-127.59,10.17,20.41,18.7
1618745907.5728533,0.5,3.97,3.95,-127.59,10.17,20.41,18.7
1618745907.6688492,0.5,3.97,3.95,-127.59,10.17,20.4,18.7
1618745907.7798505,0.5,4.0,3.77,-129.19,10.17,20.4,18.7
1618745907.8758516,0.5,4.0,3.77,-129.19,10.2,20.4,18.7
1618745907.971854,0.5,4.0,3.77,-129.19,10.2,20.37,18.7
1618745908.0678506,0.5,3.75,3.76,-129.19,10.2,20.37,18.7
1618745908.1618507,0.5,3.75,3.76,-129.59,10.07,20.37,18.7
1618745908.2568555,0.5,3.75,3.76,-129.59,10.07,20.33,18.7
1618745908.3508532,0.5,3.75,3.76,-129.59,10.07,20.33,18.7
1618745908.445861,0.5,3.09,3.74,-129.59,10.07,20.33,18.7
1618745908.5408494,0.5,3.09,3.74,-127.79,10.17,20.33,18.7
1618745908.6358476,0.5,3.09,3.74,-127.79,10.17,20.33,18.7
1618745908.7298484,0.5,3.76,3.74,-127.79,10.17,20.26,18.7
1618745908.824849,0.5,3.76,3.99,-131.28,10.17,20.26,18.7
1618745908.9198515,0.4,3.76,3.99,-131.28,10.17,20.26,18.7
1618745909.0158496,0.4,3.48,3.99,-131.28,10.17,20.37,18.7
1618745909.110848,0.4,3.48,4.6,-129.96,10.17,20.37,18.7
1618745909.203882,0.4,3.48,4.6,-129.96,10.17,20.37,18.7
1618745909.298861,0.4,3.48,4.6,-129.96,10.26,20.37,18.7
1618745909.3938832,0.4,3.48,4.6,-129.96,10.26,20.37,18.7
1618745909.504851,0.4,2.84,5.73,-131.0,10.26,20.37,18.7
1618745909.5998547,0.4,2.84,5.73,-131.0,10.1,20.37,18.7
1618745909.6948934,0.4,2.84,5.73,-131.0,10.1,20.39,18.7
1618745909.7908478,0.4,1.1,5.8,-131.0,10.1,20.39,18.7
1618745909.8868864,0.4,1.1,5.8,-132.8,10.06,20.39,18.7
1618745909.9818468,0.4,1.1,5.8,-132.8,10.06,20.39,18.7
1618745910.07685,0.4,2.22,4.82,-132.8,10.06,20.39,18.7
1618745910.1748998,0.4,2.22,4.82,-139.57,10.06,20.39,18.7
1618745910.2688875,0.4,2.22,4.82,-139.57,10.06,20.39,18.7
1618745910.3638654,0.5,2.22,4.82,-139.57,10.06,20.3,18.7
1618745910.4598603,0.5,5.99,3.31,-139.57,10.06,20.3,18.7
1618745910.5548503,0.5,5.99,3.31,-137.78,10.38,20.3,18.7
1618745910.6498566,0.5,5.99,3.31,-137.78,10.38,20.0,18.7
1618745910.7448888,0.5,7.06,3.71,-137.78,10.38,20.0,18.7
1618745910.8398628,0.5,7.06,3.71,-133.6,10.32,20.0,18.7
1618745910.9468503,0.4,7.06,3.71,-133.6,10.32,20.0,18.7
1618745911.0418508,0.4,7.06,6.12,-133.6,10.32,20.28,18.7
1618745911.1358578,0.4,7.06,6.12,-130.43,10.18,20.28,18.8
1618745911.2318478,0.4,7.06,6.12,-130.43,10.18,20.28,18.8
1618745911.3278525,0.4,7.06,6.12,-130.43,10.18,20.28,18.8
1618745911.422856,0.4,7.06,6.12,-130.43,10.18,20.25,18.8
1618745911.5168571,0.4,2.84,6.12,-132.17,10.18,20.25,18.8
1618745911.6108568,0.5,2.84,6.12,-132.17,10.16,20.25,18.8
1618745911.7058494,0.5,2.84,6.12,-132.17,10.16,20.2,18.8
1618745911.8018506,0.5,1.55,6.88,-130.62,10.16,20.2,18.8
1618745911.8948576,0.5,1.55,6.88,-130.62,10.31,20.2,18.8
1618745911.9898515,0.5,1.55,6.88,-130.62,10.31,20.2,18.8
1618745912.0848598,0.5,1.55,6.88,-130.62,10.31,20.19,18.8
1618745912.1781876,0.5,2.21,6.36,-130.62,10.31,20.19,18.8
1618745912.2731824,0.5,2.21,6.36,-132.53,10.2,20.19,18.8
1618745912.3671918,0.5,2.21,6.36,-132.53,10.2,20.19,18.8
1618745912.4621835,0.5,2.68,6.36,-132.53,10.2,20.17,18.8
1618745912.5571852,0.5,2.68,5.95,-13.0,10.2,20.17,18.8
1618745912.6511848,0.5,2.68,5.95,-13.0,1.0,20.17,18.8
1618745912.7462,0.5,3.51,5.95,-13.0,1.0,20.21,18.8
1618745912.8411856,0.5,3.51,5.95,-13.0,1.0,20.21,18.8
1618745912.9361827,0.5,3.51,6.12,-140.67,1.0,20.21,18.8
1618745913.0301864,0.5,3.51,6.12,-140.67,10.2,20.21,18.8
1618745913.124187,0.5,3.51,6.12,-140.67,10.2,20.21,18.8
1618745913.2191856,0.5,4.2,6.88,-140.67,10.2,20.21,18.8
1618745913.3141866,0.5,4.2,6.88,-134.35,10.37,20.21,18.8
1618745913.4071941,0.5,4.2,6.88,-134.35,10.37,20.21,18.8
1618745913.4871905,0.5,4.98,6.88,-134.35,10.37,20.3,18.8
1618745913.5821846,0.5,4.98,6.88,-134.35,10.37,20.3,18.8
1618745913.6771863,0.5,4.98,5.8,-133.35,10.27,20.3,18.8
1618745913.788182,0.5,4.98,5.8,-133.35,10.27,20.3,18.8
1618745913.884186,0.5,4.39,5.8,-133.35,10.27,2.0,18.8
1618745913.979182,0.5,4.39,6.34,-135.66,10.27,2.0,18.8
1618745914.0747755,0.5,4.39,6.34,-135.66,10.2,2.0,18.8
1618745914.1697192,0.5,4.61,6.34,-135.66,10.2,20.17,18.8
1618745914.2647164,0.5,4.61,6.36,-133.87,10.2,20.17,18.8
1618745914.3607106,0.4,4.61,6.36,-133.87,10.27,20.17,18.8
1618745914.4547226,0.4,5.74,6.36,-133.87,10.27,20.13,18.8
1618745914.5487127,0.4,5.74,5.88,-135.64,10.27,20.13,18.8
1618745914.643711,0.4,5.74,5.88,-135.64,10.27,20.13,18.8
1618745914.7397509,0.5,5.74,5.88,-135.64,10.25,20.13,18.8
1618745914.835716,0.5,5.74,5.88,-135.64,10.25,20.01,18.8
1618745914.9307187,0.5,5.99,5.75,-135.64,10.25,20.01,18.8
1618745915.025712,0.5,5.99,5.75,-134.89,10.15,20.01,18.8
1618745915.1207128,0.5,5.99,5.75,-134.89,10.15,20.01,18.8
1618745915.2147267,0.5,6.3,5.78,-134.89,10.15,20.04,18.8
1618745915.3097148,0.5,6.3,5.78,-138.53,10.19,20.04,18.8
1618745915.4047205,0.5,6.3,5.78,-138.53,10.19,20.04,18.8
1618745915.5007129,0.5,6.3,5.78,-138.53,10.19,20.04,18.8
1618745915.5957093,0.5,6.3,5.78,-138.53,10.19,20.03,18.8
1618745915.6907117,0.5,6.81,5.51,-138.53,10.19,20.03,18.8
1618745915.7837198,0.5,6.81,5.51,-135.93,10.24,20.03,18.8
1618745915.8787146,0.5,6.81,5.51,-135.93,10.24,20.03,18.8
1618745915.9727166,0.5,7.03,5.69,-135.01,10.24,20.03,18.8
1618745916.0677679,0.4,7.03,5.69,-135.01,10.37,20.03,18.8
1618745916.162725,0.4,7.03,5.69,-135.01,10.37,20.04,18.8
1618745916.257713,0.4,7.03,5.69,-135.01,10.37,20.04,18.8
1618745916.352345,0.4,7.47,5.58,-135.01,10.37,20.04,18.8
1618745916.4447143,0.4,7.47,5.58,-139.1,10.19,20.04,18.8
1618745916.5387268,0.5,7.47,5.58,-139.1,10.19,20.04,18.8
1618745916.6327217,0.5,7.12,5.58,-139.1,10.19,19.99,18.8
1618745916.7287254,0.5,7.12,6.12,-140.57,10.19,19.99,18.8
1618745916.8247144,0.5,7.12,6.12,-140.57,10.22,19.99,18.8
1618745916.9207137,0.5,7.12,6.12,-140.57,10.22,20.0,18.8
1618745917.016711,0.5,7.28,5.73,-139.98,10.22,20.0,18.8
1618745917.1107144,0.5,7.28,5.73,-139.98,10.26,20.0,18.8
1618745917.2057211,0.5,7.28,5.73,-139.98,10.26,20.0,18.8
1618745917.3007135,0.5,7.28,5.73,-139.98,10.26,19.97,18.8
1618745917.3957098,0.5,6.96,5.49,-139.98,10.26,19.97,18.8
1618745917.4907203,0.5,6.96,5.49,-139.44,10.28,19.97,18.8
1618745917.5857139,0.5,6.96,5.49,-139.44,10.28,19.93,18.8
1618745917.68072,0.5,7.69,6.44,-139.44,10.28,19.93,18.8
1618745917.7897105,0.5,7.69,6.44,-139.4,10.33,19.93,18.8
1618745917.8997161,0.5,7.69,6.44,-139.4,10.33,19.93,18.8
1618745917.994714,0.5,7.93,5.73,-139.4,10.33,19.93,18.8
1618745918.0907261,0.5,7.93,5.73,-140.2,10.15,19.93,18.8
1618745918.1857147,0.6,7.93,5.73,-140.2,10.15,19.93,18.8
1618745918.279729,0.6,7.93,5.73,-140.2,10.15,19.93,18.8
1618745918.374752,0.6,7.49,6.02,-140.2,10.15,19.93,18.8
1618745918.4707305,0.6,7.49,6.02,-139.71,10.27,19.93,18.8
1618745918.549721,0.5,7.49,6.02,-139.71,10.27,19.93,18.8
1618745918.6597216,0.5,7.56,5.51,-139.71,10.27,19.0,18.8
1618745918.7557156,0.5,7.56,5.51,-139.9,10.23,19.0,18.8
1618745918.850718,0.5,7.56,5.51,-139.9,10.23,19.0,18.8
1618745918.9467351,0.5,7.38,5.51,-139.9,10.23,19.9,18.8
1618745919.0417345,0.5,7.38,5.78,-142.19,10.18,19.9,18.8
1618745919.1387193,0.4,7.38,5.78,-142.19,10.18,19.9,18.8
1618745919.2317245,0.4,7.38,5.78,-142.19,10.18,19.9,18.8
1618745919.3267117,0.4,7.38,5.78,-142.19,10.18,19.9,18.8
1618745919.420715,0.4,8.83,5.75,-142.19,10.18,19.9,18.8
1618745919.515755,0.4,8.83,5.75,-143.72,10.31,19.9,18.8
1618745919.6107213,0.5,8.83,5.75,-143.72,10.31,19.9,18.8
1618745919.7047174,0.5,8.83,6.0,-143.72,10.31,19.85,18.8
1618745919.7987225,0.5,8.83,6.0,-142.49,10.19,19.85,18.8
1618745919.8937492,0.5,8.83,6.0,-142.49,10.19,19.85,18.8
1618745919.9897513,0.5,8.83,6.0,-142.49,10.19,19.86,18.8
1618745920.0837162,0.5,8.48,6.58,-142.49,10.19,19.86,18.8
1618745920.178721,0.5,8.48,6.58,-142.49,10.19,19.86,18.8
1618745920.2727187,0.5,8.48,6.58,-141.13,10.35,19.86,18.8
1618745920.3677213,0.5,8.48,6.58,-141.13,10.35,19.86,18.8
1618745920.4627125,0.5,7.72,6.04,-141.13,10.35,19.86,18.8
1618745920.5577116,0.5,7.72,6.04,-144.26,10.26,19.86,18.8
1618745920.6517124,0.5,7.72,6.04,-144.26,10.26,19.83,18.8
1618745920.7467117,0.5,7.9,5.27,-144.26,10.26,19.83,18.8
1618745920.840724,0.5,7.9,5.27,-142.61,10.26,19.83,18.8
1618745920.9347103,0.5,7.9,5.27,-142.61,10.26,19.0,18.8
1618745921.0297508,0.5,7.9,5.27,-142.61,10.26,19.0,18.8
1618745921.122753,0.5,7.72,5.31,-142.61,10.26,19.0,18.8
1618745921.218713,0.5,7.72,5.31,-144.38,10.15,19.0,18.8
1618745921.3137221,0.6,7.72,5.31,-144.38,10.15,19.0,18.8
1618745921.408714,0.6,7.84,5.93,-144.38,10.15,19.82,18.8
1618745921.5047524,0.6,7.84,5.93,-143.37,10.17,19.82,18.8
1618745921.6157105,0.6,7.84,5.93,-143.37,10.17,19.82,18.8
1618745921.7087214,0.6,8.48,5.93,-143.37,10.17,19.75,18.8
1618745921.8047125,0.6,8.48,6.63,-145.44,10.17,19.75,18.8
1618745921.8987267,0.5,8.48,6.63,-145.44,10.21,19.75,18.8
1618745921.9937167,0.5,8.48,6.63,-145.44,10.21,19.75,18.8
1618745922.087751,0.5,8.14,6.63,-145.44,10.21,19.72,18.8
1618745922.1817257,0.5,8.14,5.93,-146.08,10.21,19.72,18.8
1618745922.2767127,0.5,8.14,5.93,-146.08,10.33,19.72,18.8
1618745922.3717144,0.5,8.31,5.93,-146.08,10.33,19.67,18.8
1618745922.4667099,0.5,8.31,5.93,-147.21,10.33,19.67,18.8
1618745922.560849,0.5,8.31,5.93,-147.21,10.3,19.67,18.8
1618745922.6548886,0.5,8.31,5.93,-147.21,10.3,19.67,18.8
1618745922.7498431,0.5,8.3,5.75,-147.21,10.3,19.67,18.8
1618745922.8588412,0.5,8.3,5.75,-146.34,10.27,19.67,18.8
1618745922.968843,0.5,8.3,5.75,-146.34,10.27,19.67,18.8
1618745923.064846,0.5,8.37,5.73,-146.34,10.27,19.67,18.8
1618745923.1628492,0.5,8.37,5.73,-146.34,10.27,19.67,18.8
1618745923.2698727,0.5,8.37,5.73,-146.59,10.22,19.67,18.8
1618745923.376846,0.6,8.37,5.73,-146.59,10.22,19.67,18.8
1618745923.471847,0.6,8.37,5.73,-146.59,10.22,19.62,18.8
1618745923.566855,0.6,8.12,5.87,-146.59,10.22,19.62,18.8
1618745923.661846,0.6,8.12,5.87,-147.3,10.26,19.62,18.8
1618745923.7568448,0.5,8.12,5.87,-147.3,10.26,19.61,18.8
1618745923.8518457,0.5,8.06,5.67,-147.3,10.26,19.61,18.8
1618745923.9458532,0.5,8.06,5.67,-147.46,10.3,19.61,18.8
1618745924.0408432,0.6,8.06,5.67,-147.46,10.3,19.61,18.8
1618745924.1378465,0.6,8.12,5.67,-147.46,10.3,19.56,18.8
1618745924.2318792,0.6,8.12,5.93,-149.82,10.3,19.56,18.8
1618745924.3258464,0.6,8.12,5.93,-149.82,10.3,19.56,18.8
1618745924.4208448,0.6,8.12,5.93,-149.82,10.38,19.56,18.8
1618745924.5158408,0.6,8.61,5.93,-149.82,10.38,19.54,18.8
1618745924.6108463,0.6,8.61,6.07,-151.48,10.38,19.54,18.8
1618745924.7058432,0.5,8.61,6.07,-151.48,10.36,19.54,18.8
1618745924.8008413,0.5,8.61,6.07,-151.48,10.36,19.54,18.8
1618745924.8958454,0.5,9.28,5.15,-151.48,10.36,19.52,18.8
1618745924.9898548,0.5,9.28,5.15,-150.29,10.3,19.52,18.8
1618745925.0838442,0.5,9.28,5.15,-150.29,10.3,19.52,18.8
1618745925.1798449,0.6,9.28,5.15,-150.29,10.3,19.52,18.8
1618745925.2738674,0.6,8.97,5.15,-150.29,10.3,19.47,18.8
1618745925.3678522,0.6,8.97,5.53,-151.18,10.3,19.47,18.8
1618745925.4618437,0.5,8.97,5.53,-151.18,10.3,19.47,18.8
1618745925.5558517,0.5,8.97,5.53,-151.18,10.3,19.53,18.8
1618745925.6498406,0.5,8.8,5.73,-151.18,10.3,19.53,18.8
1618745925.7448523,0.5,8.8,5.73,-153.35,10.3,19.53,18.8
1618745925.8418443,0.5,8.8,5.73,-153.35,10.3,19.46,18.8
1618745925.9338536,0.5,8.8,5.73,-153.35,10.3,19.46,18.8
1618745926.027846,0.5,10.34,5.49,-153.35,10.3,19.46,18.8
1618745926.122846,0.5,10.34,5.49,-149.34,10.28,19.46,18.8
1618745926.2178462,0.4,10.34,5.49,-149.34,10.28,19.46,18.8
1618745926.3118455,0.4,9.3,5.49,-149.34,10.28,19.43,18.8
1618745926.406846,0.4,9.3,5.31,-155.0,10.28,19.43,18.8
1618745926.501842,0.5,9.3,5.31,-155.0,10.34,19.43,18.8
1618745926.5971906,0.5,10.27,5.31,-155.0,10.34,19.43,18.8
1618745926.6931822,0.5,10.27,6.46,-154.67,10.34,19.43,18.8
1618745926.788181,0.5,10.27,6.46,-154.67,10.45,19.43,18.8
1618745926.880188,0.5,10.27,6.46,-154.67,10.45,19.43,18.8
1618745926.9741814,0.5,10.27,6.46,-154.67,10.45,19.43,18.8
1618745927.06918,0.5,9.03,6.04,-154.67,10.45,19.31,18.8
1618745927.1641798,0.5,9.03,6.04,-155.76,10.38,19.31,18.8
1618745927.260186,0.6,9.03,6.04,-155.76,10.38,19.31,18.8
1618745927.3561802,0.6,9.48,5.97,-155.76,10.38,19.35,18.8
1618745927.451177,0.6,9.48,5.97,-152.85,10.49,19.35,18.8
1618745927.547176,0.5,9.48,5.97,-152.85,10.49,19.35,18.8
1618745927.6411817,0.5,9.48,5.97,-152.85,10.49,19.33,18.8
1618745927.7381773,0.5,9.48,5.97,-152.85,10.49,19.33,18.8
1618745927.8331785,0.5,9.24,5.84,-152.85,10.49,19.33,18.8
1618745927.9271798,0.5,9.24,5.84,-155.0,10.25,19.33,18.8
1618745928.0221767,0.5,9.24,5.84,-155.0,10.25,19.32,18.8
1618745928.11718,0.5,9.68,5.97,-155.0,10.25,19.32,18.8
1618745928.213183,0.5,9.68,5.97,-154.78,10.25,19.32,18.8
1618745928.3071797,0.5,9.68,5.97,-154.78,10.25,19.32,18.8
1618745928.4021802,0.5,9.92,5.97,-154.78,10.25,19.31,18.8
1618745928.497188,0.5,9.92,5.97,-157.1,10.25,19.31,18.8
1618745928.5921762,0.5,9.92,5.97,-157.1,10.25,19.31,18.8
1618745928.6861782,0.5,9.92,5.97,-157.1,10.22,19.31,18.8
1618745928.7811835,0.5,9.05,5.97,-157.1,10.22,19.25,18.8
1618745928.8901777,0.5,9.05,6.63,-153.17,10.22,19.25,18.8
1618745928.9861748,0.5,9.05,6.63,-153.17,10.31,19.25,18.8
1618745929.080178,0.5,9.05,6.63,-153.17,10.31,19.25,18.8
1618745929.1751785,0.5,9.0,5.8,-153.17,10.31,19.21,18.8
1618745929.2701933,0.5,9.0,5.8,-157.28,10.31,19.21,18.8
1618745929.3651884,0.5,9.0,5.8,-157.28,10.31,19.21,18.8
1618745929.4591765,0.5,8.91,5.8,-157.28,10.31,19.18,18.8
1618745929.5531795,0.5,8.91,6.27,-157.06,10.2,19.18,18.8
1618745929.6621904,0.5,8.91,6.27,-157.06,10.2,19.18,18.8
1618745929.7571867,0.5,8.91,6.27,-157.06,10.2,19.11,18.7
1618745929.853176,0.5,8.91,6.27,-157.06,10.2,19.11,18.7
1618745929.9481773,0.5,9.83,6.22,-157.06,10.2,19.11,18.7
1618745930.0411794,0.5,9.83,6.22,-155.73,10.2,19.11,18.7
1618745930.1371942,0.5,9.83,6.22,-155.73,10.2,19.04,18.7
1618745930.2321796,0.5,10.17,5.97,-155.73,10.2,19.04,18.7
1618745930.32618,0.5,10.17,5.97,-156.49,10.26,19.04,18.7
1618745930.420178,0.5,10.17,5.97,-156.49,10.26,19.04,18.7
1618745930.5161774,0.5,9.76,5.97,-156.49,10.26,19.01,18.7
1618745930.6091812,0.5,9.76,5.97,-158.74,10.26,19.01,18.7
1618745930.7041783,0.7,9.76,5.97,-158.74,10.22,19.01,18.7
1618745930.799215,0.7,9.76,5.97,-158.74,10.22,19.01,18.7
1618745930.8931804,0.7,9.48,5.97,-158.74,10.22,18.94,18.7
1618745930.9891875,0.7,9.48,6.02,-158.75,10.22,18.94,18.7
1618745931.0832129,0.0,9.48,6.02,-158.75,10.25,18.94,18.7
1618745931.1792133,0.0,9.48,6.02,-158.75,10.25,18.94,18.7
1618745931.2751749,0.0,9.66,5.93,-158.75,10.25,18.94,18.7
1618745931.3711817,0.0,9.66,5.93,-158.63,10.28,18.94,18.7
1618745931.4671779,0.5,9.66,5.93,-158.63,10.28,18.94,18.7
1618745931.559709,0.5,9.66,5.93,-158.63,10.28,18.94,18.7
1618745931.6537247,0.5,8.73,5.73,-158.63,10.28,18.94,18.7
1618745931.746716,0.5,8.73,5.73,-159.14,10.2,18.94,18.7
1618745931.8417113,0.4,8.73,5.73,-159.14,10.2,18.94,18.7
1618745931.9367092,0.4,8.99,5.73,-159.14,10.2,18.97,18.7
1618745932.0337088,0.4,8.99,6.22,-160.26,10.2,18.97,18.7
1618745932.1267104,0.4,8.99,6.22,-160.26,10.37,18.97,18.7
1618745932.2227364,0.4,8.57,6.22,-160.26,10.37,18.97,18.7
1618745932.3187218,0.4,8.57,6.68,-159.99,10.37,18.97,18.7
1618745932.4127164,0.4,8.57,6.68,-159.99,10.37,18.97,18.7
1618745932.507718,0.5,8.57,6.68,-159.99,10.18,18.97,18.7
1618745932.6027098,0.5,8.57,6.68,-159.99,10.18,18.97,18.7
1618745932.6967103,0.5,8.77,5.0,-159.99,10.18,18.92,18.7
1618745932.7917116,0.5,8.77,5.0,-159.33,10.27,18.92,18.7
1618745932.8847091,0.5,8.77,5.0,-159.33,10.27,18.92,18.7
1618745932.978719,0.5,9.17,5.0,-159.33,10.27,18.91,18.7
1618745933.0887265,0.5,9.17,6.71,-161.31,10.06,18.91,18.7
1618745933.1837096,0.6,9.17,6.71,-161.31,10.06,18.91,18.7
1618745933.2767193,0.6,9.09,6.71,-161.31,10.06,18.82,18.7
1618745933.3717153,0.6,9.09,6.71,-161.31,10.06,18.82,18.7
1618745933.466723,0.6,9.09,5.75,-160.23,10.06,18.82,18.7
1618745933.5617225,0.5,9.09,5.75,-160.23,10.26,18.82,18.7
1618745933.6567698,0.5,10.04,5.75,-160.23,10.26,18.75,18.7
1618745933.7517161,0.5,10.04,7.32,-163.12,10.26,18.75,18.7
1618745933.846724,0.4,10.04,7.32,-163.12,10.28,18.75,18.7
1618745933.9417577,0.4,10.04,7.32,-163.12,10.28,18.75,18.7
1618745934.021735,0.4,10.04,7.32,-163.12,10.28,18.75,18.7
1618745934.1167235,0.4,8.11,6.29,-163.12,10.28,18.7,18.7
1618745934.2117252,0.4,8.11,6.29,-163.17,10.09,18.7,18.7
1618745934.3077261,0.6,8.11,6.29,-163.17,10.09,18.7,18.7
1618745934.4027143,0.6,8.33,6.0,-163.17,10.09,18.7,18.7
1618745934.4807124,0.6,8.33,6.0,-162.92,10.21,18.7,18.7
1618745934.5767379,0.5,8.33,6.0,-162.92,10.21,18.7,18.7
1618745934.6717103,0.5,9.19,6.0,-162.92,10.21,18.59,18.7
1618745934.7647161,0.5,9.19,6.0,-162.92,10.21,18.59,18.7
1618745934.8607128,0.5,9.19,5.58,-162.45,10.21,18.59,18.7
1618745934.9547122,0.5,9.19,5.58,-162.45,10.21,18.59,18.7
1618745935.0487156,0.5,8.87,5.58,-162.45,10.21,18.57,18.7
1618745935.144724,0.5,8.87,6.66,-161.39,10.21,18.57,18.7
1618745935.2397082,0.5,8.87,6.66,-161.39,10.21,18.57,18.7
1618745935.3347094,0.5,8.87,6.66,-161.39,10.21,18.54,18.7
1618745935.4297135,0.5,9.23,6.19,-161.39,10.21,18.54,18.7
1618745935.5237217,0.5,9.23,6.19,-164.49,10.37,18.54,18.7
1618745935.6197083,0.5,9.23,6.19,-164.49,10.37,18.54,18.7
1618745935.7147505,0.4,9.23,6.19,-164.49,10.37,18.51,18.7
1618745935.8097162,0.4,8.59,6.46,-164.49,10.37,18.51,18.7
1618745935.9037323,0.4,8.59,6.46,-164.67,10.37,18.51,18.7
1618745935.999753,0.5,8.59,6.46,-164.67,10.37,18.51,18.7
1618745936.0937476,0.5,8.15,6.46,-164.67,10.37,18.47,18.7
1618745936.1897182,0.5,8.15,6.39,-165.88,10.37,18.47,18.7
1618745936.2837133,0.5,8.15,6.39,-165.88,10.24,18.47,18.7
1618745936.3797104,0.5,8.58,6.39,-165.88,10.24,18.4,18.7
1618745936.475771,0.5,8.58,6.39,-165.88,10.24,18.4,18.7
1618745936.56972,0.5,8.58,6.04,-165.57,10.24,18.4,18.7
1618745936.6647098,0.5,8.58,6.04,-165.57,10.23,18.4,18.7
1618745936.760711,0.5,8.58,6.04,-165.57,10.23,18.36,18.7
1618745936.8537192,0.5,9.33,6.24,-165.57,10.23,18.36,18.7
1618745936.9487154,0.5,9.33,6.24,-164.84,10.24,18.36,18.7
1618745937.0437143,0.5,9.33,6.24,-164.84,10.24,18.33,18.7
1618745937.139713,0.5,9.63,6.29,-164.84,10.24,18.33,18.7
1618745937.233709,0.4,9.63,6.29,-165.93,10.24,18.33,18.7
1618745937.3287156,0.4,9.63,6.29,-165.93,10.24,18.33,18.7
1618745937.4247127,0.4,9.63,6.29,-165.93,10.24,18.33,18.7
1618745937.51971,0.4,8.54,6.29,-165.93,10.24,18.33,18.7
1618745937.6147141,0.4,8.54,6.8,-167.01,10.24,18.33,18.7
1618745937.710746,0.5,8.54,6.8,-167.01,10.18,18.33,18.7
1618745937.8057156,0.5,8.98,6.8,-167.01,10.18,18.27,18.7
1618745937.8987496,0.5,8.98,6.8,-166.62,10.38,18.27,18.7
1618745937.993717,0.4,8.98,6.8,-166.62,10.38,18.27,18.7
1618745938.103711,0.4,8.98,6.8,-166.62,10.38,18.21,18.7
1618745938.1987114,0.4,9.25,7.13,-166.62,10.38,18.21,18.7
1618745938.292709,0.4,9.25,7.13,-166.62,10.38,18.21,18.7
1618745938.3867102,0.5,9.25,7.13,-167.48,10.38,18.21,18.7
1618745938.4827235,0.5,9.25,7.13,-167.48,10.38,18.1,18.7
1618745938.5807204,0.5,9.66,6.66,-167.05,10.38,18.1,18.7
1618745938.673709,0.3,9.66,6.66,-167.05,10.19,18.1,18.7
1618745938.7697124,0.3,9.66,6.66,-167.05,10.19,18.1,18.7
1618745938.86371,0.3,8.79,6.44,-167.05,10.19,18.02,18.7
1618745938.9587145,0.3,8.79,6.44,-168.47,10.28,18.02,18.7
1618745939.0517197,0.6,8.79,6.44,-168.47,10.28,18.02,18.7
1618745939.1467106,0.6,8.79,6.44,-168.47,10.28,18.02,18.7
1618745939.2407234,0.6,8.8,6.68,-168.47,10.28,18.0,18.7
1618745939.3367143,0.6,8.8,6.68,-168.47,10.28,18.0,18.7
1618745939.430721,0.5,8.8,6.68,-168.47,10.28,18.0,18.7
1618745939.5257401,0.5,10.25,6.68,-168.47,10.28,17.93,18.7
1618745939.6207106,0.5,10.25,6.44,-168.75,10.28,17.93,18.7
1618745939.715719,0.5,10.25,6.44,-168.75,10.43,17.93,18.7
1618745939.810717,0.5,9.62,6.44,-168.75,10.43,17.92,18.7
1618745939.9057093,0.5,9.62,6.44,-168.75,10.43,17.92,18.7
1618745939.9997504,0.5,9.62,5.38,-167.33,10.43,17.92,18.7
1618745940.093706,0.6,9.62,5.38,-167.33,10.25,17.92,18.7
1618745940.1907094,0.6,9.62,5.38,-167.33,10.25,17.9,18.7
1618745940.285721,0.6,8.77,5.97,-169.98,10.25,17.9,18.7
1618745940.3827095,0.5,8.77,5.97,-169.98,10.16,17.9,18.7
1618745940.4767494,0.5,8.77,5.97,-169.98,10.16,17.83,18.7
1618745940.5707119,0.5,8.36,6.24,-169.26,10.16,17.83,18.7
1618745940.6657107,0.5,8.36,6.24,-169.26,10.12,17.83,18.7
1618745940.760719,0.5,8.36,6.24,-169.26,10.12,17.83,18.7
1618745940.8677163,0.5,8.36,6.24,-169.26,10.12,17.83,18.7
1618745940.9627137,0.5,9.38,6.61,-169.26,10.12,17.8,18.7
1618745941.0567105,0.5,9.38,6.61,-169.53,10.32,17.8,18.7
1618745941.150718,0.5,9.38,6.61,-169.53,10.32,17.8,18.7
1618745941.259725,0.5,8.98,5.87,-169.53,10.32,17.78,18.7
1618745941.3547103,0.5,8.98,5.87,-172.09,10.26,17.78,18.7
1618745941.4497325,0.5,8.98,5.87,-172.09,10.26,17.78,18.7
1618745941.543751,0.5,9.26,5.87,-172.09,10.26,17.75,18.7
1618745941.637744,0.5,9.26,6.68,-172.1,10.26,17.75,18.7
1618745941.7327492,0.5,9.26,6.68,-172.1,10.26,17.75,18.7
1618745941.8277133,0.5,9.1,6.68,-172.1,10.26,17.74,18.7
1618745941.9347131,0.5,9.1,6.41,-171.3,10.26,17.74,18.7
1618745942.0307138,0.5,9.1,6.41,-171.3,10.26,17.74,18.7
1618745942.12571,0.5,9.1,6.41,-171.3,10.26,17.74,18.7
1618745942.2207098,0.5,9.1,6.41,-171.3,10.26,17.75,18.7
1618745942.315712,0.5,8.77,5.93,-171.3,10.26,17.75,18.7
1618745942.4077165,0.5,8.77,5.93,0.0,10.32,17.75,18.7
1618745942.503711,0.5,8.77,5.93,0.0,10.32,17.75,18.7
1618745942.5987122,0.5,9.37,6.17,-173.99,10.32,17.75,18.7
1618745942.6917267,0.5,9.37,6.17,-173.99,10.35,17.75,18.7
1618745942.7887118,0.5,9.37,6.17,-173.99,10.35,17.75,18.7
1618745942.88372,0.5,9.37,6.17,-173.99,10.35,17.75,18.7
1618745942.9777086,0.5,9.03,6.17,-173.99,10.35,17.56,18.7
1618745943.0707133,0.5,9.03,7.29,-172.84,10.2,17.56,18.7
1618745943.1817133,0.5,9.03,7.29,-172.84,10.2,17.56,18.7
1618745943.2777088,0.5,8.43,5.82,-172.84,10.2,17.52,18.7
1618745943.3727086,0.5,8.43,5.82,-174.12,10.33,17.52,18.7
1618745943.4667125,0.5,8.43,5.82,-174.12,10.33,17.52,18.7
1618745943.5627215,0.5,9.16,5.82,-174.12,10.33,17.49,18.7
1618745943.6567152,0.5,9.16,5.71,-174.8,10.33,17.49,18.7
1618745943.7517178,0.4,9.16,5.71,-174.8,10.26,17.49,18.7
1618745943.845718,0.4,9.16,5.71,-174.8,10.26,17.49,18.7
1618745943.9397235,0.4,8.78,5.71,-174.8,10.26,17.49,18.7
1618745944.033715,0.4,8.78,6.36,-173.25,10.26,17.49,18.7
1618745944.1417162,0.5,8.78,6.36,-173.25,10.29,17.49,18.7
1618745944.238718,0.5,8.78,6.36,-173.25,10.29,17.45,18.7
1618745944.3327122,0.5,9.26,6.17,-174.49,10.29,17.45,18.7
1618745944.4277334,0.5,9.26,6.17,-174.49,10.33,17.45,18.7
1618745944.5227106,0.5,9.34,6.17,-174.49,10.33,17.42,18.7
1618745944.6317189,0.5,9.34,6.19,-175.01,10.33,17.42,18.7
1618745944.71171,0.5,9.34,6.19,-175.01,10.37,17.42,18.7
1618745944.8057203,0.5,9.34,6.19,-175.01,10.37,17.42,18.7
1618745944.9017143,0.5,9.34,6.19,-175.01,10.37,17.34,18.7
1618745944.9957204,0.5,8.74,6.19,-175.01,10.37,17.34,18.7
1618745945.0747206,0.5,8.74,6.19,-177.14,10.32,17.34,18.7
1618745945.1697097,0.5,8.74,6.19,-177.14,10.32,17.27,18.7
1618745945.2777097,0.5,10.7,5.97,-177.14,10.32,17.27,18.7
1618745945.3727186,0.5,10.7,5.97,-173.4,10.32,17.27,18.7
1618745945.4667146,0.5,10.7,5.97,-173.4,10.32,17.27,18.7
1618745945.5627491,0.5,8.77,5.97,-173.4,10.32,17.21,18.7
1618745945.6577146,0.5,8.77,5.97,-173.4,10.32,17.21,18.7
1618745945.736713,0.5,8.77,6.41,-175.78,10.17,17.21,18.7
1618745945.830713,0.5,8.77,6.41,-175.78,10.17,17.21,18.7
1618745945.92471,0.5,8.83,6.41,-175.78,10.17,17.12,18.7
1618745946.019717,0.5,8.83,5.95,-176.7,10.31,17.12,18.7
1618745946.1287138,0.5,8.83,5.95,-176.7,10.31,17.12,18.7
1618745946.2247195,0.5,7.84,5.95,-176.7,10.31,17.15,18.7
1618745946.3197122,0.5,7.84,6.22,-177.21,10.31,17.15,18.7
1618745946.3987536,0.5,7.84,6.22,-177.21,10.31,17.15,18.7
1618745946.4927163,0.5,7.84,6.22,-177.21,10.31,17.15,18.7
1618745946.5877101,0.5,8.34,5.51,-177.21,10.31,17.1,18.7
1618745946.6827133,0.5,8.34,5.51,-175.34,10.31,17.1,18.7
1618745946.777787,0.5,8.34,5.51,-175.34,10.31,17.1,18.7
1618745946.8717215,0.5,9.19,6.27,-175.34,10.31,17.13,18.7
1618745946.9667177,0.5,9.19,6.27,169.0,10.0,17.13,18.7
1618745947.0607176,0.5,9.19,6.27,169.0,10.0,17.13,18.7
1618745947.1567135,0.5,9.69,6.27,169.0,10.0,17.1,18.7
1618745947.2527187,0.5,9.69,6.27,173.11,10.26,17.1,18.7
1618745947.3477137,0.5,9.69,6.27,173.11,10.26,17.1,18.7
1618745947.443719,0.5,9.69,6.27,173.11,10.26,17.05,18.7
1618745947.5377254,0.5,9.7,6.93,173.11,10.26,17.05,18.7
1618745947.6327236,0.5,9.7,6.93,166.15,10.36,17.05,18.7
1618745947.728715,0.5,9.7,6.93,166.15,10.36,16.93,18.7
1618745947.8227189,0.5,9.57,5.36,166.15,10.36,16.93,18.7
1618745947.91575,0.5,9.57,5.36,166.84,10.22,16.93,18.7
1618745948.00972,0.5,9.57,5.36,166.84,10.22,16.89,18.7
1618745948.1047118,0.5,9.02,6.0,166.84,10.22,16.89,18.7
1618745948.1997092,0.5,9.02,6.0,166.84,10.22,16.89,18.7
1618745948.2927074,0.5,9.02,6.0,163.99,10.31,16.89,18.7
1618745948.3877113,0.5,9.02,6.0,163.99,10.31,16.79,18.7
1618745948.4817164,0.5,9.02,5.62,163.99,10.31,16.79,18.7
1618745948.5757113,0.5,9.02,5.62,165.72,10.36,16.79,18.7
1618745948.6697452,0.5,9.02,5.62,165.72,10.36,16.75,18.7
1618745948.7647176,0.5,9.23,6.27,165.72,10.36,16.75,18.7
1618745948.8587217,0.5,9.23,6.27,165.62,10.25,16.75,18.7
1618745948.9547274,0.5,9.23,6.27,165.62,10.25,16.75,18.7
1618745949.048722,0.6,9.23,6.27,165.62,10.25,16.75,18.7
1618745949.1417162,0.6,9.0,6.27,165.62,10.25,16.71,18.7
1618745949.2357142,0.6,9.0,6.51,165.23,10.25,16.71,18.7
1618745949.32971,0.4,9.0,6.51,165.23,10.32,16.71,18.7
1618745949.4247212,0.4,9.0,6.51,165.23,10.32,16.61,18.7
1618745949.5197384,0.4,10.13,5.6,165.23,10.32,16.61,18.7
1618745949.6137178,0.5,10.13,5.6,163.31,10.32,16.61,18.7
1618745949.7087154,0.5,10.13,5.6,163.31,10.32,16.61,18.7
1618745949.8067176,0.5,9.0,5.73,163.31,10.32,16.61,18.7
1618745949.8987236,0.5,9.0,5.73,163.31,10.32,16.61,18.7
1618745949.9937108,0.5,9.0,5.73,164.61,10.35,16.61,18.7
1618745950.0887136,0.5,9.0,5.73,164.61,10.35,16.61,18.7
1618745950.1827145,0.5,9.43,5.73,164.61,10.35,16.56,18.7
1618745950.2777095,0.5,9.43,6.39,163.9,10.35,16.56,18.7
1618745950.371718,0.5,9.43,6.39,163.9,10.31,16.56,18.7
1618745950.465751,0.5,9.24,6.39,163.9,10.31,16.53,18.7
1618745950.5607157,0.5,9.24,6.93,163.67,10.31,16.53,18.7
1618745950.6547127,0.4,9.24,6.93,163.67,10.24,16.53,18.7
1618745950.7497184,0.4,8.55,6.93,163.67,10.24,16.53,18.7
1618745950.844718,0.4,8.55,6.93,163.67,10.24,16.53,18.7
1618745950.939709,0.4,8.55,6.04,163.33,10.27,16.53,18.7
1618745951.0337229,0.5,8.55,6.04,163.33,10.27,16.53,18.7
1618745951.1297112,0.5,8.34,6.04,163.33,10.27,16.47,18.7
1618745951.223718,0.5,8.34,6.17,161.18,10.28,16.47,18.7
1618745951.319715,0.5,8.34,6.17,161.18,10.28,16.47,18.7
1618745951.4137077,0.5,9.0,6.17,161.18,10.28,16.43,18.7
1618745951.50871,0.5,9.0,6.17,162.88,10.28,16.43,18.7
1618745951.6037176,0.5,9.0,6.17,162.88,10.32,16.43,18.7
1618745951.697714,0.5,9.0,6.17,162.88,10.32,16.43,18.7
1618745951.7927105,0.5,9.0,6.17,162.88,10.32,16.4,18.7
1618745951.8887196,0.5,9.41,5.56,162.88,10.32,16.4,18.7
1618745951.982719,0.5,9.41,5.56,162.88,10.32,16.4,18.7
1618745952.0787146,0.5,9.41,5.56,162.88,10.32,16.33,18.7
1618745952.174713,0.5,8.69,6.04,162.88,10.32,16.33,18.7
1618745952.2687178,0.5,8.69,6.04,153.46,10.21,16.33,18.7
1618745952.3627105,0.5,8.69,6.04,153.46,10.21,16.25,18.7
1618745952.4557137,0.5,8.69,6.04,153.46,10.21,16.25,18.7
1618745952.5507143,0.5,8.4,5.97,153.46,10.21,16.25,18.7
1618745952.6457148,0.5,8.4,5.97,152.89,10.35,16.25,18.7
1618745952.7397113,0.6,8.4,5.97,152.89,10.35,16.25,18.7
1618745952.8357248,0.6,7.91,5.97,152.89,10.35,16.2,18.7
1618745952.9307098,0.6,7.91,5.31,154.07,10.35,16.2,18.7
1618745953.024719,0.5,7.91,5.31,154.07,10.18,16.2,18.7
1618745953.1197174,0.5,7.91,5.31,154.07,10.18,16.19,18.7
1618745953.2307112,0.5,9.47,6.17,154.07,10.18,16.19,18.7
1618745953.323715,0.5,9.47,6.17,154.07,10.18,16.19,18.7
1618745953.418719,0.5,9.47,6.17,154.07,10.18,16.19,18.7
1618745953.5147126,0.5,8.83,6.17,154.07,10.18,16.11,18.7
1618745953.6077127,0.5,8.83,6.17,154.07,10.18,16.11,18.7
1618745953.7027159,0.5,8.83,6.17,153.22,10.21,16.11,18.7
1618745953.7987146,0.5,8.83,6.17,153.22,10.21,16.11,18.7
1618745953.893712,0.5,8.33,6.17,153.22,10.21,16.19,18.7
1618745953.987712,0.5,8.33,5.75,151.34,10.21,16.19,18.7
1618745954.0827162,0.4,8.33,5.75,151.34,10.25,16.19,18.7
1618745954.1767511,0.4,8.59,5.75,151.34,10.25,16.14,18.7
1618745954.2717187,0.4,8.59,5.97,151.68,10.25,16.14,18.7
1618745954.3667114,0.4,8.59,5.97,151.68,10.25,16.14,18.7
1618745954.4617348,0.4,8.78,5.97,151.68,10.25,16.14,18.7
1618745954.5557475,0.4,8.78,5.97,151.68,10.25,16.14,18.7
1618745954.6507175,0.4,8.78,5.73,150.76,10.25,16.14,18.7
1618745954.7597208,0.5,8.78,5.73,150.76,10.3,16.14,18.7
1618745954.8537111,0.5,8.93,5.73,150.76,10.3,15.99,18.7
1618745954.947738,0.5,8.93,6.41,151.61,10.3,15.99,18.7
1618745955.0567222,0.4,8.93,6.41,151.61,10.33,15.99,18.7
1618745955.1517084,0.4,8.93,6.41,151.61,10.33,15.93,18.7
1618745955.244717,0.4,8.93,6.61,152.01,10.33,15.93,18.7
1618745955.3397665,0.4,8.93,6.61,152.01,10.25,15.93,18.7
1618745955.4357178,0.4,8.93,6.61,152.01,10.25,15.85,18.7
1618745955.5307353,0.4,9.37,5.58,150.67,10.25,15.85,18.7
1618745955.6257231,0.4,9.37,5.58,150.67,10.25,15.85,18.7
1618745955.7197194,0.5,9.37,5.58,150.67,10.33,15.85,18.7
1618745955.8137124,0.5,8.77,5.58,150.67,10.33,15.82,18.7
1618745955.9087524,0.5,8.77,6.39,166.2,10.33,15.82,18.7
1618745956.0027494,0.5,8.77,6.39,166.2,10.39,15.82,18.7
1618745956.0967476,0.5,8.05,6.39,166.2,10.39,15.78,18.7
1618745956.1897247,0.5,8.05,6.39,150.36,10.39,15.78,18.7
1618745956.285711,0.5,8.05,6.39,150.36,10.18,15.78,18.7
1618745956.3807263,0.5,8.51,6.39,150.36,10.18,15.73,18.7
1618745956.4757116,0.5,8.51,6.39,150.36,10.18,15.73,18.7
1618745956.5697134,0.5,8.51,6.41,150.3,10.18,15.73,18.7
1618745956.664719,0.5,8.51,6.41,150.3,10.45,15.73,18.7
1618745956.7587166,0.5,8.35,6.41,150.3,10.45,15.71,18.7
1618745956.852709,0.5,8.35,5.27,149.72,10.13,15.71,18.7
1618745956.9467106,0.5,8.35,5.27,149.72,10.13,15.71,18.7
1618745957.0427132,0.5,8.58,5.27,149.72,10.13,15.7,18.7
1618745957.1367133,0.5,8.58,5.45,151.0,10.0,15.7,18.7
1618745957.2312837,0.5,8.58,5.45,151.0,10.0,15.7,18.7
1618745957.3227165,0.5,8.58,5.45,151.0,10.0,15.7,18.7
1618745957.4167178,0.5,8.83,5.45,151.0,10.0,15.68,18.7
1618745957.5117176,0.5,8.83,5.8,148.59,10.0,15.68,18.7
1618745957.6057143,0.5,8.83,5.8,148.59,10.23,15.68,18.7
1618745957.700713,0.5,8.78,5.8,148.59,10.23,15.65,18.7
1618745957.7957115,0.5,8.78,5.78,158.96,10.23,15.65,18.7
1618745957.889753,0.5,8.78,5.78,158.96,10.43,15.65,18.7
1618745957.9837089,0.5,8.37,5.78,158.96,10.43,15.61,18.7
1618745958.0787172,0.5,8.37,6.44,161.84,10.43,15.61,18.7
1618745958.1747265,0.5,8.37,6.44,161.84,10.43,15.61,18.7
1618745958.269721,0.5,8.37,6.44,161.84,10.43,15.61,18.7
1618745958.3637483,0.5,7.9,6.44,161.84,10.43,15.54,18.7
1618745958.4587147,0.5,7.9,6.02,158.96,10.43,15.54,18.7
1618745958.5537121,0.5,7.9,6.02,158.96,10.23,15.54,18.7
1618745958.6487496,0.5,8.73,6.02,158.96,10.23,15.48,18.7
1618745958.743737,0.5,8.73,6.17,163.4,10.32,15.48,18.7
1618745958.8497117,0.5,8.73,6.17,163.4,10.32,15.48,18.7
1618745958.9457178,0.5,8.73,6.17,163.4,10.32,15.41,18.7
1618745959.0407157,0.5,8.73,6.17,163.4,10.32,15.41,18.7
1618745959.1367128,0.5,9.73,6.19,162.26,10.32,15.41,18.7
1618745959.230714,0.4,9.73,6.19,162.26,10.36,15.41,18.7
1618745959.3247163,0.4,9.73,6.19,162.26,10.36,15.36,18.7
1618745959.419713,0.4,7.77,5.36,162.26,10.36,15.36,18.7
1618745959.5147166,0.4,7.77,5.36,162.5,10.41,15.36,18.7
1618745959.608742,0.5,7.77,5.36,162.5,10.41,15.36,18.7
1618745959.7047122,0.5,8.33,5.36,162.5,10.41,15.36,18.7
1618745959.800711,0.5,8.33,6.17,160.79,10.41,15.36,18.7
1618745959.9097128,0.5,8.33,6.17,160.79,10.21,15.36,18.7
1618745960.0027127,0.5,8.33,6.17,160.79,10.21,15.26,18.7
1618745960.096724,0.5,8.33,6.17,160.79,10.21,15.26,18.7
1618745960.1917522,0.5,8.58,6.22,160.79,10.21,15.26,18.7
1618745960.2867157,0.4,8.58,6.22,160.64,10.21,15.26,18.7
1618745960.38171,0.4,8.58,6.22,160.64,10.21,15.23,18.7
1618745960.475717,0.4,8.33,6.51,160.64,10.21,15.23,18.7
1618745960.5707083,0.4,8.33,6.51,161.34,10.35,15.23,18.7
1618745960.6657245,0.4,8.33,6.51,161.34,10.35,15.23,18.7
1618745960.7617495,0.4,8.77,6.51,161.34,10.35,15.16,18.7
1618745960.8567116,0.4,8.77,6.22,161.18,10.35,15.16,18.7
1618745960.9507103,0.4,8.77,6.22,161.18,10.35,15.16,18.7
1618745961.0457144,0.5,8.77,6.22,161.18,10.38,15.16,18.7
1618745961.14075,0.5,8.14,6.22,161.18,10.38,15.08,18.7
1618745961.235716,0.5,8.14,6.19,159.85,10.38,15.08,18.7
1618745961.3297098,0.5,8.14,6.19,159.85,10.29,15.08,18.7
1618745961.4237137,0.5,8.14,6.19,159.85,10.29,15.08,18.7
1618745961.5197124,0.5,9.23,5.78,159.85,10.29,15.08,18.7
1618745961.6147256,0.5,9.23,5.78,159.41,10.29,15.08,18.7
1618745961.7107105,0.5,9.23,5.78,159.41,10.29,15.08,18.7
1618745961.8047137,0.5,9.23,5.78,159.41,10.29,15.08,18.7
1618745961.899722,0.5,8.21,5.78,159.41,10.29,15.08,18.7
1618745961.9947147,0.5,8.21,6.46,0.0,10.17,15.08,18.7
1618745962.0887256,0.5,8.21,6.46,0.0,10.17,15.08,18.7
1618745962.184711,0.5,8.12,6.46,0.0,10.17,15.08,18.7
1618745962.2797103,0.5,8.12,6.44,159.01,10.17,15.08,18.7
1618745962.3737137,0.5,8.12,6.44,159.01,10.29,15.08,18.7
1618745962.4687138,0.5,8.12,6.44,159.01,10.29,14.99,18.7
1618745962.563757,0.5,8.36,6.41,159.01,10.29,14.99,18.7
1618745962.657774,0.5,8.36,6.41,159.01,10.29,14.99,18.7
1618745962.753712,0.5,8.36,6.41,156.5,10.25,14.99,18.7
1618745962.8477263,0.5,8.36,6.41,156.5,10.25,14.99,18.7
1618745962.942709,0.5,7.41,6.41,156.5,10.25,14.96,18.7
1618745963.0387497,0.5,7.41,6.41,155.46,10.2,14.96,18.7
1618745963.1347113,0.5,7.41,6.41,155.46,10.2,14.96,18.7
1618745963.2287464,0.5,7.41,6.41,155.46,10.2,14.9,18.7
1618745963.3377135,0.5,8.36,5.31,153.2,10.2,14.9,18.7
1618745963.433715,0.5,8.36,5.31,153.2,10.12,14.9,18.7
1618745963.527737,0.5,8.36,5.31,153.2,10.12,14.86,18.7
1618745963.6217213,0.5,9.11,6.14,153.2,10.12,14.86,18.7
1618745963.7167134,0.5,9.11,6.14,151.74,10.18,14.86,18.7
1618745963.8127093,0.5,9.11,6.14,151.74,10.18,14.86,18.7
1618745963.907738,0.5,9.11,6.14,151.74,10.18,14.86,18.7
1618745964.0027194,0.5,9.35,6.14,151.74,10.18,14.81,18.7
1618745964.0967228,0.5,9.35,5.53,15.0,1.0,14.81,18.7
1618745964.1917162,0.5,9.35,5.53,15.0,1.0,14.81,18.7
1618745964.286714,0.5,9.35,5.53,15.0,1.0,14.79,18.7
1618745964.3827143,0.5,9.27,6.0,161.91,1.0,14.79,18.7
1618745964.4767113,0.5,9.27,6.0,161.91,10.39,14.79,18.7
1618745964.5707133,0.5,9.27,6.0,161.91,10.39,14.75,18.7
1618745964.6647108,0.5,10.04,6.0,161.91,10.39,14.75,18.7
1618745964.760712,0.5,10.04,6.0,161.91,10.39,14.75,18.7
1618745964.855714,0.5,10.04,6.0,168.63,10.43,14.75,18.7
1618745964.9507253,0.5,10.04,6.0,168.63,10.43,14.75,18.7
1618745965.0447164,0.5,9.08,6.0,168.63,10.43,14.69,18.7
1618745965.1407995,0.5,9.08,5.97,168.45,10.43,14.69,18.7
1618745965.2347093,0.5,9.08,5.97,168.45,10.43,14.69,18.7
1618745965.3307197,0.5,9.14,5.97,168.45,10.43,14.66,18.7
1618745965.424751,0.5,9.14,5.97,167.44,10.43,14.66,18.7
1618745965.5187235,0.5,9.14,5.97,167.44,10.3,14.66,18.7
1618745965.6127117,0.5,9.14,5.97,167.44,10.3,14.66,18.7
1618745965.706738,0.5,9.14,5.97,167.44,10.3,14.66,18.7
1618745965.7997134,0.5,8.56,5.78,167.44,10.3,14.66,18.7
1618745965.8937278,0.5,8.56,5.78,165.89,10.33,14.66,18.7
1618745965.9897187,0.5,8.56,5.78,165.89,10.33,14.66,18.7
1618745966.0847106,0.5,9.33,5.78,165.89,10.33,14.54,18.7
1618745966.1787133,0.5,9.33,5.78,142.51,10.35,14.54,18.7
1618745966.273714,0.5,9.33,5.78,142.51,10.35,14.54,18.7
1618745966.3687098,0.5,9.59,5.78,142.51,10.35,14.52,18.7
1618745966.4627514,0.5,9.59,5.78,142.51,10.35,14.52,18.7
1618745966.5577116,0.5,9.59,6.17,174.17,10.35,14.52,18.7
1618745966.6527183,0.5,9.59,6.17,174.17,10.19,14.52,18.7
1618745966.7477164,0.5,9.59,6.17,174.17,10.19,14.47,18.7
1618745966.8427541,0.5,9.29,6.66,174.17,10.19,14.47,18.7
1618745966.937713,0.5,9.29,6.66,165.94,10.3,14.47,18.7
1618745967.032729,0.5,9.29,6.66,165.94,10.3,14.47,18.7
1618745967.128746,0.5,8.5,6.17,165.94,10.3,14.43,18.7
1618745967.2227101,0.5,8.5,6.17,164.0,10.0,14.43,18.7
1618745967.3177128,0.5,8.5,6.17,164.0,10.0,14.43,18.7
1618745967.4117365,0.5,8.5,6.17,164.0,10.0,14.43,18.7
1618745967.5067112,0.5,8.91,6.17,164.0,10.0,14.43,18.7
1618745967.5997097,0.5,8.91,6.61,163.54,10.34,14.43,18.7
1618745967.7097201,0.5,8.91,6.61,163.54,10.34,14.43,18.7
1618745967.8037214,0.5,9.0,6.61,163.54,10.34,14.32,18.7
1618745967.899711,0.5,9.0,6.24,147.95,10.34,14.32,18.7
1618745967.9947188,0.5,9.0,6.24,147.95,10.18,14.32,18.7
1618745968.0907118,0.5,9.0,6.24,147.95,10.18,14.3,18.7
1618745968.185731,0.5,8.94,6.0,145.21,10.18,14.3,18.7
1618745968.2817655,0.5,8.94,6.0,145.21,10.3,14.3,18.7
1618745968.3767114,0.5,8.94,6.0,145.21,10.3,14.3,18.7
1618745968.4717214,0.5,8.94,6.0,145.21,10.3,14.27,18.7
1618745968.5657494,0.5,9.18,5.8,145.21,10.3,14.27,18.7
1618745968.6607504,0.5,9.18,5.8,145.45,10.16,14.27,18.7
1618745968.7557714,0.5,9.18,5.8,145.45,10.16,14.27,18.7
1618745968.8497112,0.5,8.33,5.8,145.45,10.16,14.32,18.7
1618745968.942716,0.5,8.33,6.22,145.63,10.16,14.32,18.7
1618745969.0377166,0.5,8.33,6.22,145.63,10.26,14.32,18.7
1618745969.133717,0.5,8.73,6.22,145.63,10.26,14.33,18.7
1618745969.2287157,0.5,8.73,6.22,145.63,10.26,14.33,18.7
1618745969.3217175,0.5,8.73,6.1,145.53,10.26,14.33,18.7
1618745969.4287388,0.5,8.73,6.1,145.53,10.27,14.33,18.7
1618745969.5237174,0.5,8.73,6.1,145.53,10.27,14.28,18.7
1618745969.6177082,0.5,8.4,6.44,145.53,10.27,14.28,18.7
1618745969.713717,0.5,8.4,6.44,137.45,10.29,14.28,18.7
1618745969.8077307,0.5,8.4,6.44,137.45,10.29,14.25,18.7
1618745969.9027135,0.5,8.19,7.07,137.45,10.29,14.25,18.7
1618745969.9977112,0.5,8.19,7.07,145.59,10.2,14.25,18.7
1618745970.0917106,0.5,8.19,7.07,145.59,10.2,14.25,18.7
1618745970.1867106,0.5,8.19,7.07,145.59,10.2,14.25,18.7
1618745970.2807436,0.5,8.48,7.07,145.59,10.2,14.25,18.7
1618745970.3757267,0.5,8.48,6.9,150.4,10.23,14.25,18.7
1618745970.4697094,0.5,8.48,6.9,150.4,10.23,14.25,18.7
1618745970.5647287,0.5,7.87,6.9,150.4,10.23,14.12,18.7
1618745970.6597207,0.5,7.87,6.85,149.32,10.23,14.12,18.7
1618745970.7537534,0.5,7.87,6.85,149.32,10.23,14.12,18.7
1618745970.8487127,0.5,9.34,6.85,149.32,10.23,14.08,18.7
1618745970.9427125,0.5,9.34,6.85,149.32,10.23,14.08,18.7
1618745971.0527503,0.5,9.34,6.0,143.97,10.23,14.08,18.7
1618745971.146751,0.5,9.34,6.0,143.97,10.27,14.08,18.7
1618745971.2427125,0.5,9.34,6.0,143.97,10.27,14.06,18.7
1618745971.337711,0.5,8.47,6.22,143.97,10.27,14.06,18.7
1618745971.4337165,0.5,8.47,6.22,142.0,10.0,14.06,18.7
1618745971.52975,0.5,8.47,6.22,142.0,10.0,14.1,18.7
1618745971.6257102,0.5,8.12,6.68,142.0,10.0,14.1,18.7
1618745971.7207236,0.5,8.12,6.68,148.13,10.22,14.1,18.7
1618745971.8167174,0.5,8.12,6.68,148.13,10.22,14.1,18.7
1618745971.9117193,0.5,7.38,6.68,148.13,10.22,14.07,18.7
1618745972.0227296,0.5,7.38,5.78,141.59,10.22,14.07,18.7
1618745972.1157207,0.5,7.38,5.78,141.59,10.22,14.07,18.7
1618745972.2097156,0.5,7.38,5.78,141.59,10.22,14.07,18.7
1618745972.3047109,0.5,7.86,5.78,141.59,10.22,14.04,18.7
1618745972.398715,0.5,7.86,6.0,149.11,10.22,14.04,18.7
1618745972.494714,0.5,7.86,6.0,149.11,10.15,14.04,18.7
1618745972.590712,0.5,7.86,6.0,149.11,10.15,14.01,18.7
1618745972.6867085,0.5,8.49,6.93,149.11,10.15,14.01,18.7
1618745972.7827103,0.5,8.49,6.93,142.6,10.3,14.01,18.7
1618745972.8767626,0.5,8.49,6.93,142.6,10.3,14.01,18.7
1618745972.9727075,0.5,7.85,6.46,142.6,10.3,13.92,18.7
1618745973.068712,0.5,7.85,6.46,157.94,10.21,13.92,18.7
1618745973.1647086,0.5,7.85,6.46,157.94,10.21,13.92,18.7
1618745973.2597525,0.5,7.85,6.46,157.94,10.21,13.92,18.7
1618745973.355712,0.5,8.0,6.46,157.94,10.21,13.92,18.7
1618745973.464724,0.5,8.0,6.66,136.92,10.21,13.92,18.7
1618745973.5607102,0.5,8.0,6.66,136.92,10.31,13.92,18.7
1618745973.6537163,0.5,8.0,6.66,136.92,10.31,13.89,18.7
1618745973.7487092,0.5,8.37,6.17,135.74,10.31,13.89,18.7
1618745973.8427162,0.5,8.37,6.17,135.74,10.38,13.89,18.7
1618745973.9367192,0.5,8.37,6.17,135.74,10.38,13.9,18.7
1618745974.0317118,0.5,9.27,6.41,135.74,10.38,13.9,18.7
1618745974.1267123,0.5,9.27,6.41,134.74,10.22,13.9,18.7
1618745974.2227154,0.5,9.27,6.41,134.74,10.22,13.9,18.7
1618745974.3187108,0.5,9.27,6.41,134.74,10.22,13.9,18.7
1618745974.411714,0.5,8.18,6.41,134.74,10.22,13.88,18.7
1618745974.5077221,0.5,8.18,6.41,143.66,10.29,13.88,18.7
1618745974.6027503,0.5,8.18,6.41,143.66,10.29,13.88,18.7
1618745974.6977174,0.5,9.12,6.41,143.66,10.29,13.85,18.7
1618745974.792712,0.5,9.12,6.19,141.81,10.29,13.85,18.7
1618745974.886712,0.5,9.12,6.19,141.81,10.23,13.85,18.7
1618745974.9817095,0.5,8.67,6.19,141.81,10.23,13.85,18.7
1618745975.074718,0.5,8.67,6.19,141.81,10.23,13.85,18.7
1618745975.1687157,0.5,8.67,6.34,141.21,10.23,13.85,18.7
1618745975.264712,0.5,8.67,6.34,141.21,10.27,13.85,18.7
1618745975.3607275,0.5,8.67,6.34,141.21,10.27,13.81,18.7
1618745975.4567108,0.5,8.61,5.75,141.21,10.27,13.81,18.7
1618745975.5507169,0.5,8.61,5.75,141.25,10.27,13.81,18.7
1618745975.6457179,0.5,8.61,5.75,141.25,10.27,13.78,18.7
1618745975.7407193,0.5,8.49,6.56,141.25,10.27,13.78,18.7
1618745975.8367465,0.5,8.49,6.56,136.81,10.29,13.78,18.7
1618745975.9307504,0.5,8.49,6.56,136.81,10.29,13.78,18.7
1618745976.025713,0.5,9.44,6.56,136.81,10.29,13.75,18.7
1618745976.1217167,0.5,9.44,6.56,136.81,10.29,13.75,18.7
1618745976.2147148,0.5,9.44,6.68,133.2,10.42,13.75,18.7
1618745976.310709,0.4,9.44,6.68,133.2,10.42,13.75,18.7
1618745976.40671,0.4,9.26,6.68,133.2,10.42,13.71,18.7
1618745976.5147095,0.4,9.26,6.88,142.36,10.42,13.71,18.7
1618745976.608722,0.5,9.26,6.88,142.36,10.43,13.71,18.7
1618745976.704716,0.5,9.26,6.88,142.36,10.43,13.7,18.7
1618745976.800712,0.5,9.17,7.04,135.01,10.43,13.7,18.7
1618745976.8967123,0.5,9.17,7.04,135.01,10.43,13.7,18.7
1618745976.9917114,0.5,9.17,7.04,135.01,10.43,13.72,18.7
1618745977.0867143,0.5,9.17,7.04,135.01,10.43,13.72,18.7
1618745977.1817203,0.5,8.49,6.41,135.01,10.43,13.72,18.7
1618745977.2757258,0.5,8.49,6.41,142.75,10.23,13.72,18.7
1618745977.3697157,0.5,8.49,6.41,142.75,10.23,13.72,18.7
1618745977.464717,0.5,9.38,6.17,142.75,10.23,13.72,18.7
1618745977.559709,0.5,9.38,6.17,147.36,10.32,13.72,18.7
1618745977.6557095,0.4,9.38,6.17,147.36,10.32,13.72,18.7
1618745977.7497156,0.4,8.31,6.17,147.36,10.32,13.71,18.7
1618745977.844714,0.4,8.31,5.36,140.58,10.12,13.71,18.7
1618745977.9540074,0.5,8.31,5.36,140.58,10.12,13.71,18.7
1618745978.0490081,0.5,8.12,5.36,140.58,10.12,13.7,18.7
1618745978.1420093,0.5,8.12,5.36,140.58,10.12,13.7,18.7
1618745978.2370105,0.5,8.12,5.78,139.13,10.12,13.7,18.7
1618745978.3313468,0.0,8.12,5.78,139.13,10.16,13.7,18.7
1618745978.4093394,0.0,7.56,5.78,139.13,10.16,13.66,18.7
1618745978.5193393,0.0,7.56,5.25,141.16,10.16,13.66,18.7
1618745978.6143389,0.5,7.56,5.25,141.16,10.32,13.66,18.7
1618745978.7083457,0.5,7.56,5.25,141.16,10.32,13.66,18.7
1618745978.8023517,0.5,6.96,4.67,139.59,10.32,13.66,18.7
1618745978.897338,0.5,6.96,4.67,139.59,10.32,13.66,18.7
1618745978.9913406,0.5,6.96,4.67,139.59,10.32,13.66,18.7
1618745979.0863488,0.5,6.96,4.67,139.59,10.32,13.57,18.7
1618745979.1813457,0.5,6.14,4.8,139.59,10.32,13.57,18.7
1618745979.2763422,0.5,6.14,4.8,139.87,10.18,13.57,18.7
1618745979.370338,0.5,6.14,4.8,139.87,10.18,13.57,18.7
1618745979.465345,0.5,6.94,4.86,139.87,10.18,13.57,18.7
1618745979.5613403,0.5,6.94,4.86,140.0,10.0,13.57,18.7
1618745979.6543634,0.5,6.94,4.86,140.0,10.0,13.57,18.7
1618745979.7493386,0.5,6.94,4.86,140.0,10.0,13.57,18.7
1618745979.8453386,0.5,6.39,4.86,140.0,10.0,13.55,18.7
1618745979.9403398,0.5,6.39,4.67,131.61,10.0,13.55,18.7
1618745980.0343657,0.5,6.39,4.67,131.61,10.0,13.55,18.7
1618745980.1293368,0.5,6.17,4.67,131.61,10.0,13.54,18.7
1618745980.2243545,0.5,6.17,4.86,135.46,10.0,13.54,18.7
1618745980.319344,0.5,6.17,4.86,135.46,10.08,13.54,18.7
1618745980.4133406,0.5,5.93,4.86,135.46,10.08,13.53,18.7
1618745980.5083456,0.5,5.93,4.86,135.46,10.08,13.53,18.7
1618745980.6023407,0.5,5.93,4.86,135.92,10.08,13.53,18.7
1618745980.696342,0.5,5.93,4.86,135.92,10.39,13.53,18.7
1618745980.7913387,0.5,5.93,4.86,135.92,10.39,13.53,18.7
1618745980.8843474,0.5,5.26,3.96,139.5,10.39,13.53,18.7
1618745980.97934,0.5,5.26,3.96,139.5,10.2,13.53,18.7
1618745981.071338,0.5,5.26,3.96,139.5,10.2,13.53,18.7
1618745981.1663444,0.5,5.1,3.98,139.5,10.2,13.53,18.7
1618745981.260338,0.5,5.1,3.98,133.99,10.23,13.53,18.7
1618745981.3543482,0.5,5.1,3.98,133.99,10.23,13.53,18.7
1618745981.4503396,0.5,5.1,3.98,133.99,10.23,13.53,18.7
1618745981.545377,0.5,3.95,3.96,133.99,10.23,13.53,18.7
1618745981.6533473,0.5,3.95,3.96,140.26,10.17,13.53,18.7
1618745981.747347,0.5,3.95,3.96,140.26,10.17,13.53,18.7
1618745981.8413393,0.5,5.03,3.99,140.26,10.17,13.54,18.7
1618745981.936345,0.5,5.03,3.99,135.09,10.14,13.54,18.7
1618745982.0313406,0.5,5.03,3.99,135.09,10.14,13.54,18.7
1618745982.1253402,0.5,5.12,3.99,135.09,10.14,13.52,18.7
1618745982.2203379,0.5,5.12,3.99,135.09,10.14,13.52,18.7
1618745982.3143418,0.5,5.12,3.8,133.6,10.3,13.52,18.7
1618745982.4103389,0.5,5.12,3.8,133.6,10.3,13.52,18.7
1618745982.5043485,0.5,4.39,3.8,133.6,10.3,13.51,18.7
1618745982.5983396,0.5,4.39,4.26,134.35,10.3,13.51,18.7
1618745982.692343,0.0,4.39,4.26,134.35,10.27,13.51,18.7
1618745982.7863576,0.0,4.39,4.26,134.35,10.27,13.53,18.7
1618745982.8813386,0.0,5.52,3.98,134.14,10.27,13.53,18.7
1618745982.9763517,0.0,5.52,3.98,134.14,10.22,13.53,18.7
1618745983.07234,0.0,5.52,3.98,134.14,10.22,13.53,18.7
1618745983.168353,0.0,5.52,3.98,134.14,10.22,13.48,18.7
1618745983.2633433,0.0,4.14,4.43,134.14,10.22,13.48,18.7
1618745983.358353,0.0,4.14,4.43,131.67,10.06,13.48,18.7
1618745983.4533434,0.5,4.14,4.43,131.67,10.06,13.48,18.7
1618745983.5643485,0.5,4.56,5.31,131.67,10.06,13.47,18.7
1618745983.6593785,0.5,4.56,5.31,124.83,10.27,13.47,18.7
1618745983.755341,0.5,4.56,5.31,124.83,10.27,13.47,18.7
1618745983.85234,0.5,5.05,5.31,124.83,10.27,13.45,18.7
1618745983.946354,0.5,5.05,5.29,141.44,10.27,13.45,18.7
1618745984.0418737,0.5,5.05,5.29,141.44,10.29,13.45,18.7
1618745984.1368802,0.5,5.47,5.29,141.44,10.29,13.42,18.7
1618745984.232878,0.5,5.47,5.31,127.22,10.29,13.42,18.7
1618745984.327879,0.5,5.47,5.31,127.22,10.29,13.42,18.7
1618745984.42088,0.5,5.47,5.31,127.22,10.27,13.42,18.7
1618745984.5138786,0.5,5.47,5.31,127.22,10.27,13.42,18.7
1618745984.6088765,0.5,4.57,4.86,140.76,10.27,13.42,18.7
1618745984.7028763,0.5,4.57,4.86,140.76,10.15,13.42,18.7
1618745984.7978787,0.5,4.57,4.86,140.76,10.15,13.44,18.7
1618745984.892878,0.5,4.9,4.45,140.76,10.15,13.44,18.7
1618745984.9888752,0.5,4.9,4.45,131.03,10.22,13.44,18.7
1618745985.083879,0.5,4.9,4.45,131.03,10.22,13.43,18.7
1618745985.176877,0.5,4.9,4.45,131.03,10.22,13.43,18.7
1618745985.2719152,0.5,3.76,4.43,131.03,10.22,13.43,18.7
1618745985.3668766,0.5,3.76,4.43,132.68,10.27,13.43,18.7
1618745985.460875,0.5,3.76,4.43,132.68,10.27,13.43,18.7
1618745985.553882,0.5,4.82,4.91,132.68,10.27,13.43,18.7
1618745985.6618779,0.5,4.82,4.91,130.64,10.27,13.43,18.7
1618745985.7568743,0.4,4.82,4.91,130.64,10.27,13.43,18.7
1618745985.8508892,0.4,4.01,4.91,130.64,10.27,13.43,18.7
1618745985.9448829,0.4,4.01,4.69,129.97,10.27,13.43,18.7
1618745986.0398805,0.4,4.01,4.69,129.97,10.27,13.43,18.7
1618745986.1338782,0.5,4.01,4.69,129.97,10.27,13.43,18.7
1618745986.2278771,0.5,3.74,4.69,129.97,10.27,13.39,18.7
1618745986.3218827,0.5,3.74,4.4,129.46,10.27,13.39,18.7
1618745986.414879,0.5,3.74,4.4,129.46,10.15,13.39,18.7
1618745986.5088775,0.5,4.6,4.4,129.46,10.15,13.41,18.7
1618745986.6018755,0.5,4.6,5.04,129.18,10.15,13.41,18.7
1618745986.6968777,0.5,4.6,5.04,129.18,10.3,13.41,18.7
1618745986.7908752,0.5,4.6,5.04,129.18,10.3,13.41,18.7
1618745986.8849134,0.5,4.45,5.04,129.18,10.3,13.38,18.7
1618745986.979882,0.5,4.45,4.64,129.69,10.3,13.38,18.7
1618745987.072883,0.5,4.45,4.64,129.69,10.15,13.38,18.7
1618745987.1678789,0.5,4.45,4.64,129.69,10.15,13.38,18.7
1618745987.2628827,0.5,4.42,4.69,128.26,10.15,13.38,18.7
1618745987.358876,0.5,4.42,4.69,128.26,10.23,13.38,18.7
1618745987.4528878,0.5,4.42,4.69,128.26,10.23,13.38,18.7
1618745987.546877,0.5,4.42,4.69,128.26,10.23,13.38,18.7
1618745987.6408908,0.5,3.93,4.62,128.26,10.23,13.38,18.7
1618745987.736879,0.5,3.93,4.62,129.16,10.33,13.38,18.7
1618745987.832878,0.5,3.93,4.62,129.16,10.33,13.38,18.7
1618745987.9268718,0.5,4.18,4.86,129.16,10.33,13.38,18.7
1618745988.0218763,0.5,4.18,4.86,128.54,10.23,13.38,18.7
1618745988.1178796,0.5,4.18,4.86,128.54,10.23,13.38,18.7
1618745988.2108848,0.5,4.18,4.86,128.54,10.23,13.34,18.7
1618745988.3048759,0.5,4.18,5.06,127.08,10.15,13.34,18.7
1618745988.4008822,0.5,4.18,5.06,127.08,10.15,13.34,18.7
1618745988.4958827,0.5,4.18,5.06,127.08,10.15,13.34,18.7
1618745988.6049135,0.5,4.42,5.06,127.08,10.15,13.31,18.7
1618745988.700873,0.5,4.42,4.84,127.6,10.15,13.31,18.7
1618745988.7958732,0.5,4.42,4.84,127.6,10.3,13.31,18.7
1618745988.890877,0.5,4.38,4.84,127.6,10.3,13.31,18.7
1618745988.9868786,0.5,4.38,4.87,126.67,10.3,13.31,18.7
1618745989.0808747,0.5,4.38,4.87,126.67,10.3,13.31,18.7
1618745989.1898756,0.5,4.38,4.87,126.67,10.3,13.3,18.7
1618745989.284876,0.5,4.18,4.91,126.48,10.3,13.3,18.7
1618745989.3798807,0.5,4.18,4.91,126.48,10.15,13.3,18.7
1618745989.4758797,0.5,4.18,4.91,126.48,10.15,13.3,18.7
1618745989.5708733,0.5,4.43,4.58,126.48,10.15,13.3,18.7
1618745989.664878,0.5,4.43,4.58,126.48,10.15,13.3,18.7
1618745989.7608757,0.5,4.43,4.58,126.33,10.22,13.3,18.7
1618745989.856879,0.5,4.43,4.58,126.33,10.22,13.3,18.7
1618745989.951302,0.5,4.8,4.4,126.33,10.22,13.3,18.7
1618745990.0448837,0.5,4.8,4.4,126.82,10.27,13.3,18.7
1618745990.1388843,0.5,4.8,4.4,126.82,10.27,13.3,18.7
1618745990.2348735,0.5,4.4,4.4,126.82,10.27,13.36,18.7
1618745990.3298728,0.5,4.4,4.89,125.14,10.14,13.36,18.7
1618745990.4248745,0.5,4.4,4.89,125.14,10.14,13.36,18.7
1618745990.5188758,0.5,3.79,4.89,125.14,10.14,13.36,18.7
1618745990.6128733,0.5,3.79,4.6,126.02,10.14,13.36,18.7
1618745990.708874,0.5,3.79,4.6,126.02,10.14,13.36,18.7
1618745990.8038802,0.5,3.79,4.6,126.02,10.14,13.36,18.7
1618745990.8998756,0.5,3.79,4.6,126.02,10.14,13.36,18.7
1618745990.994879,0.5,3.98,4.84,125.13,10.14,13.36,18.7
1618745991.0898778,0.4,3.98,4.84,125.13,10.26,13.36,18.7
1618745991.1848788,0.4,3.98,4.84,125.13,10.26,13.43,18.7
1618745991.2788727,0.4,4.6,4.43,125.13,10.26,13.43,18.7
1618745991.3738804,0.5,4.6,4.43,123.35,10.18,13.43,18.7
1618745991.469894,0.5,4.6,4.43,123.35,10.18,13.43,18.7
1618745991.5648928,0.5,4.6,4.43,123.35,10.18,13.43,18.7
1618745991.6598804,0.5,4.2,4.65,123.35,10.18,13.42,18.7
1618745991.7548757,0.5,4.2,4.65,124.85,10.21,13.42,18.7
1618745991.8488793,0.4,4.2,4.65,124.85,10.21,13.42,18.7
1618745991.9438775,0.4,4.17,4.0,124.85,10.21,13.38,18.7
1618745992.0388815,0.4,4.17,4.0,124.13,10.23,13.38,18.7
1618745992.134936,0.5,4.17,4.0,124.13,10.23,13.38,18.7
1618745992.2308943,0.5,4.15,4.0,124.13,10.23,13.39,18.7
1618745992.3258736,0.5,4.15,4.0,124.36,10.23,13.39,18.7
1618745992.4198754,0.5,4.15,4.0,124.36,10.23,13.39,18.7
1618745992.513887,0.5,4.15,4.0,124.36,10.23,13.39,18.7
1618745992.6088743,0.5,4.15,4.0,124.36,10.23,13.32,18.7
1618745992.7038739,0.5,3.95,4.67,122.91,10.23,13.32,18.7
1618745992.7988813,0.4,3.95,4.67,122.91,10.23,13.32,18.7
1618745992.894875,0.4,3.95,4.67,122.91,10.23,13.3,18.7
1618745992.9898775,0.4,4.2,4.65,122.91,10.23,13.3,18.7
1618745993.0848744,0.4,4.2,4.65,123.22,10.14,13.3,18.7
1618745993.1798942,0.4,4.2,4.65,123.22,10.14,13.34,18.7
1618745993.2748811,0.4,4.42,4.2,123.22,10.14,13.34,18.7
1618745993.369873,0.4,4.42,4.2,123.22,10.14,13.34,18.7
1618745993.4648778,0.4,4.42,4.2,122.99,10.37,13.34,18.7
1618745993.5598853,0.4,4.42,4.2,122.99,10.37,13.34,18.7
1618745993.6548748,0.4,4.15,4.64,122.99,10.37,13.34,18.7
1618745993.749873,0.4,4.15,4.64,123.57,10.25,13.34,18.7
1618745993.8458753,0.5,4.15,4.64,123.57,10.25,13.34,18.7
1618745993.9409149,0.5,4.18,4.64,123.57,10.25,13.32,18.7
1618745994.0363793,0.5,4.18,4.6,121.85,10.25,13.32,18.7
1618745994.1298888,0.5,4.18,4.6,121.85,10.21,13.32,18.7
1618745994.2398744,0.5,3.95,4.6,121.85,10.21,13.29,18.7
1618745994.3358734,0.5,3.95,4.84,121.73,10.21,13.29,18.7
1618745994.429877,0.5,3.95,4.84,121.73,10.21,13.29,18.7
1618745994.523877,0.5,3.95,4.84,121.73,10.29,13.29,18.7
1618745994.6188798,0.5,3.95,4.84,121.73,10.29,13.26,18.7
1618745994.7138755,0.5,4.39,4.4,122.16,10.29,13.26,18.7
1618745994.8078756,0.5,4.39,4.4,122.16,10.18,13.26,18.7
1618745994.9038725,0.5,4.39,4.4,122.16,10.18,13.24,18.7
1618745994.9988742,0.5,3.95,4.45,122.16,10.18,13.24,18.7
1618745995.1078753,0.5,3.95,4.45,121.92,10.18,13.24,18.7
1618745995.203876,0.5,3.95,4.45,121.92,10.18,13.29,18.7
1618745995.2998738,0.5,3.98,4.2,121.92,10.18,13.29,18.7
1618745995.3948784,0.5,3.98,4.2,122.31,10.21,13.29,18.7
1618745995.4898756,0.5,3.98,4.2,122.31,10.21,13.29,18.7
1618745995.5838754,0.5,3.98,4.2,122.31,10.21,13.29,18.7
1618745995.6788764,0.5,4.35,4.2,122.31,10.21,13.31,18.7
1618745995.7738762,0.5,4.35,4.2,122.1,10.41,13.31,18.7
1618745995.867908,0.5,4.35,4.2,122.1,10.41,13.31,18.7
1618745995.9628868,0.5,3.75,4.2,122.1,10.41,13.29,18.7
1618745996.057876,0.5,3.75,3.99,123.14,10.21,13.29,18.7
1618745996.1518927,0.5,3.75,3.99,123.14,10.21,13.29,18.7
1618745996.2468846,0.5,4.0,3.99,123.14,10.21,13.29,18.7
1618745996.3428736,0.5,4.0,3.99,123.14,10.21,13.29,18.7
1618745996.4378738,0.5,4.0,3.95,123.1,10.21,13.29,18.7
1618745996.5328777,0.4,4.0,3.95,123.1,10.18,13.29,18.7
1618745996.6288767,0.4,4.0,3.95,123.1,10.18,13.26,18.7
1618745996.7239115,0.4,4.0,4.18,122.28,10.18,13.26,18.7
1618745996.8188753,0.4,4.0,4.18,122.28,10.25,13.26,18.7
1618745996.9258761,0.4,4.0,4.18,122.28,10.25,13.26,18.7
1618745997.0208755,0.4,3.96,4.38,121.66,10.25,13.26,18.7
