timestamp,depth,roll,pitch,yaw,vertical_acceleration,depth_beneath_rov,Depth_below_Transducer_depth_in_M,Mean_Temprature_Water_temprature_in_C
1618745098.3510592,0.5,3.28,3.54,112.6,10.31,13.7,,20.1
1618745098.4630563,0.5,3.76,3.54,112.6,10.31,13.7,,20.1
1618745098.557098,0.5,3.76,3.8,115.29,10.31,13.7,,20.1
1618745098.653062,0.5,3.76,3.8,115.29,10.17,13.7,,20.1
1618745098.7480683,0.5,3.76,3.8,115.29,10.17,13.73,,20.1
1618745098.8430648,0.5,3.1,3.99,115.29,10.17,13.73,,20.1
1618745098.9380608,0.5,3.1,3.99,115.29,10.17,13.73,,20.1
1618745099.0340607,0.5,3.1,3.99,115.29,10.17,13.76,,20.1
1618745099.1290588,0.5,3.08,3.76,115.29,10.17,13.76,,20.1
1618745099.2240572,0.5,3.08,3.76,113.9,10.16,13.76,,20.1
1618745099.3030562,0.5,3.08,3.76,113.9,10.16,13.76,,20.1
1618745099.3960745,0.5,3.08,3.76,113.9,10.16,13.76,,20.1
1618745099.507078,0.5,3.98,3.55,113.9,10.16,13.77,,20.1
1618745099.6020572,0.5,3.98,3.55,113.91,10.16,13.77,,20.1
1618745099.6970582,0.5,3.98,3.55,113.91,10.16,13.77,,20.1
1618745099.7920785,0.5,3.29,3.55,113.91,10.16,13.79,,20.1
1618745099.8880603,0.5,3.29,4.2,113.8,10.16,13.79,,20.1
1618745099.9840581,0.6,3.29,4.2,113.8,10.24,13.79,,20.1
1618745100.080057,0.6,3.55,4.2,113.8,10.24,13.0,,20.1
1618745100.1750586,0.6,3.55,4.2,113.8,10.24,13.0,,20.1
1618745100.2700567,0.6,3.55,3.96,114.19,10.24,13.0,,20.1
1618745100.3810892,0.5,3.55,3.96,114.19,10.32,13.0,,20.1
1618745100.4750578,0.5,3.55,3.96,114.19,10.32,13.79,,20.1
1618745100.5700767,0.5,3.54,3.95,114.19,10.32,13.79,,20.1
1618745100.664067,0.5,3.54,3.95,113.56,10.32,13.79,,20.1
1618745100.75906,0.5,3.54,3.95,113.56,10.32,13.72,,20.1
1618745100.8690598,0.5,3.1,3.55,113.56,10.32,13.72,,20.1
1618745100.9650645,0.5,3.1,3.55,113.37,10.24,13.72,,20.1
1618745101.0600662,0.6,3.1,3.55,113.37,10.24,13.72,,20.1
1618745101.156076,0.6,3.73,3.55,113.37,10.24,13.7,,20.1
1618745101.2510688,0.6,3.73,3.98,114.82,10.2,13.7,,20.1
1618745101.3470712,0.5,3.73,3.98,114.82,10.2,13.7,,20.1
1618745101.4420707,0.5,3.73,3.98,114.82,10.2,13.7,,20.1
1618745101.53706,0.5,4.34,3.98,114.82,10.2,13.63,,20.1
1618745101.6320572,0.5,4.34,4.45,113.44,10.2,13.63,,20.1
1618745101.7270994,0.5,4.34,4.45,113.44,10.28,13.63,,20.1
1618745101.8210642,0.5,4.34,4.45,113.44,10.28,13.61,,20.1
1618745101.9300652,0.5,3.09,3.76,113.69,10.28,13.61,,20.1
1618745102.0250602,0.5,3.09,3.76,113.69,10.2,13.61,,20.1
1618745102.12106,0.5,3.09,3.76,113.69,10.2,13.61,,20.1
1618745102.215059,0.5,3.32,3.77,113.69,10.2,13.61,,20.1
1618745102.324069,0.5,3.32,3.77,113.18,10.13,13.61,,20.1
1618745102.4200988,0.5,3.32,3.77,113.18,10.13,13.61,,20.1
1618745102.5143647,0.5,3.32,3.76,113.18,10.13,13.62,,20.1
1618745102.608401,0.5,3.32,3.76,113.18,10.13,13.62,,20.1
1618745102.70337,0.5,3.32,3.76,113.65,10.09,13.62,,20.1
1618745102.7983685,0.5,3.32,3.76,113.65,10.09,13.62,,20.1
1618745102.8928385,0.5,3.54,3.76,113.65,10.09,13.64,,20.1
1618745102.988825,0.5,3.54,3.98,113.65,10.09,13.64,,20.1
1618745103.0848057,0.6,3.54,3.98,113.65,10.09,13.64,,20.1
1618745103.1788056,0.6,3.76,3.98,113.65,10.09,13.64,,20.1
1618745103.2738085,0.6,3.76,3.78,116.01,10.09,13.64,,20.1
1618745103.3688414,0.6,3.76,3.78,116.01,10.21,13.64,,20.1
1618745103.463816,0.6,3.76,3.78,116.01,10.21,13.64,,20.1
1618745103.5588117,0.6,3.56,3.56,116.01,10.21,13.64,,20.1
1618745103.6528106,0.6,3.56,3.56,116.01,10.21,13.64,,20.1
1618745103.7478004,0.5,3.56,3.56,114.48,10.17,13.64,,20.1
1618745103.8418071,0.5,3.56,3.56,114.48,10.17,13.0,,20.1
1618745103.9368012,0.5,3.3,4.18,114.48,10.17,13.0,,20.1
1618745104.0318143,0.5,3.3,4.18,115.08,10.17,13.0,,20.1
1618745104.126805,0.5,3.3,4.18,115.08,10.17,13.0,,20.1
1618745104.2228155,0.5,3.3,3.98,115.08,10.17,13.62,,20.1
1618745104.3168402,0.5,3.3,3.98,112.48,10.24,13.62,,20.1
1618745104.4278002,0.5,3.3,3.98,112.48,10.24,13.62,,20.1
1618745104.5238082,0.5,3.51,3.98,112.48,10.24,13.62,,20.1
1618745104.6178017,0.5,3.51,3.78,116.49,10.24,13.62,,20.1
1618745104.7138062,0.5,3.51,3.78,116.49,10.24,13.62,,20.1
1618745104.8078005,0.5,3.51,3.78,116.49,10.24,13.62,,20.1
1618745104.9028025,0.5,3.72,3.78,116.49,10.24,13.65,,20.1
1618745104.9968097,0.5,3.72,3.28,116.39,10.24,13.65,,20.1
1618745105.0918055,0.6,3.72,3.28,116.39,10.29,13.65,,20.1
1618745105.186809,0.6,3.72,3.28,116.39,10.29,13.65,,20.1
1618745105.2798026,0.6,3.29,3.95,115.59,10.29,13.65,,20.1
1618745105.3588123,0.6,3.29,3.95,115.59,10.29,13.65,,20.1
1618745105.4538026,0.5,3.29,3.95,115.59,10.24,13.65,,20.1
1618745105.5488036,0.5,3.29,3.95,115.59,10.24,13.7,,20.1
1618745105.6438038,0.5,3.09,3.74,115.59,10.24,13.7,,20.1
1618745105.7228034,0.5,3.09,3.74,115.59,10.24,13.7,,20.1
1618745105.816815,0.5,3.09,3.74,115.59,10.24,13.7,,20.1
1618745105.9118018,0.5,3.75,3.74,115.59,10.24,13.7,,20.1
1618745106.0047987,0.5,3.75,3.78,117.18,10.21,13.7,,20.1
1618745106.0998044,0.5,3.75,3.78,117.18,10.21,13.7,,20.1
1618745106.1958044,0.5,3.75,3.78,117.18,10.21,13.7,,20.1
1618745106.291803,0.5,3.28,3.78,117.18,10.21,13.68,,20.1
1618745106.3708396,0.5,3.28,4.2,116.22,10.21,13.68,,20.1
1618745106.4648077,0.5,3.28,4.2,116.22,10.2,13.68,,20.1
1618745106.5598028,0.5,3.28,4.2,116.22,10.2,13.71,,20.1
1618745106.6548014,0.5,3.31,3.74,116.22,10.2,13.71,,20.1
1618745106.7328014,0.5,3.31,3.74,116.22,10.2,13.71,,20.1
1618745106.8278012,0.5,3.31,3.74,116.22,10.2,13.71,,20.1
1618745106.9228024,0.5,3.31,3.74,116.22,10.2,13.72,,20.1
1618745107.0178,0.5,3.09,3.54,116.22,10.2,13.72,,20.1
1618745107.1128025,0.5,3.09,3.54,116.65,10.2,13.72,,20.1
1618745107.2078009,0.5,3.09,3.54,116.65,10.2,13.72,,20.1
1618745107.302843,0.5,3.09,3.99,116.65,10.2,13.72,,20.1
1618745107.3818102,0.5,3.09,3.99,117.19,10.24,13.72,,20.1
1618745107.476839,0.5,3.09,3.99,117.19,10.24,13.72,,20.1
1618745107.571799,0.5,3.09,3.99,117.19,10.24,13.72,,20.1
1618745107.6677988,0.5,3.31,3.99,117.19,10.24,13.7,,20.1
1618745107.7637992,0.5,3.31,3.78,116.81,10.24,13.7,,20.1
1618745107.8588006,0.5,3.31,3.78,116.81,10.24,13.7,,20.1
1618745107.9528008,0.5,3.31,3.78,116.81,10.24,13.68,,20.1
1618745108.0488038,0.5,3.75,3.93,118.03,10.24,13.68,,20.1
1618745108.1448011,0.5,3.75,3.93,118.03,10.16,13.68,,20.1
1618745108.2387984,0.5,3.75,3.93,118.03,10.16,13.68,,20.1
1618745108.3338027,0.5,3.98,4.01,118.03,10.16,13.68,,20.1
1618745108.4283278,0.5,3.98,4.01,118.29,10.2,13.68,,20.1
1618745108.523325,0.5,3.98,4.01,118.29,10.2,13.68,,20.1
1618745108.6193278,0.5,3.98,4.01,118.29,10.2,13.68,,20.1
1618745108.7143269,0.5,3.32,4.01,118.29,10.2,13.73,,20.1
1618745108.808348,0.5,3.32,3.96,1.0,10.2,13.73,,20.1
1618745108.9033256,0.5,3.32,3.96,1.0,10.2,13.73,,20.1
1618745108.999327,0.5,3.31,3.96,1.0,10.2,13.75,,20.1
1618745109.0943356,0.5,3.31,3.76,118.87,10.2,13.75,,20.1
1618745109.1903312,0.6,3.31,3.76,118.87,10.24,13.75,,20.1
1618745109.298325,0.6,3.31,3.76,118.87,10.24,13.74,,20.1
1618745109.3923376,0.6,3.5,3.76,118.11,10.24,13.74,,20.1
1618745109.4873629,0.5,3.5,3.76,118.11,10.12,13.74,,20.1
1618745109.5833673,0.5,3.5,3.76,118.11,10.12,13.71,,20.1
1618745109.6773252,0.5,3.5,3.76,118.11,10.12,13.71,,20.1
1618745109.7733662,0.5,3.09,3.56,118.11,10.12,13.71,,20.1
1618745109.8683238,0.5,3.09,3.56,120.01,10.12,13.71,,20.1
1618745109.9623232,0.5,3.09,3.56,120.01,10.12,13.7,,20.1
1618745110.057341,0.5,4.2,3.96,120.01,10.12,13.7,,20.1
1618745110.1513212,0.5,4.2,3.96,119.28,10.25,13.7,,20.1
1618745110.2463243,0.6,4.2,3.96,119.28,10.25,13.7,,20.1
1618745110.3423316,0.6,3.98,3.31,119.28,10.25,13.7,,20.1
1618745110.437329,0.6,3.98,3.31,119.28,10.25,13.7,,20.1
1618745110.5323386,0.6,3.98,3.31,118.98,10.28,13.7,,20.1
1618745110.6273255,0.5,3.98,3.31,118.98,10.28,13.7,,20.1
1618745110.7213295,0.5,2.87,3.31,118.98,10.28,13.69,,20.1
1618745110.8183284,0.5,2.87,3.95,118.98,10.28,13.69,,20.1
1618745110.9133334,0.5,2.87,3.95,118.98,10.28,13.69,,20.1
1618745111.0233297,0.5,3.53,3.95,118.98,10.28,13.69,,20.1
1618745111.119328,0.5,3.53,3.99,119.42,10.28,13.69,,20.1
1618745111.215332,0.5,3.53,3.99,119.42,10.16,13.69,,20.1
1618745111.3093295,0.5,3.53,3.99,119.42,10.16,13.69,,20.1
1618745111.4023314,0.5,3.78,4.21,119.42,10.16,13.69,,20.1
1618745111.4973338,0.5,3.78,4.21,119.47,10.33,13.69,,20.1
1618745111.5913303,0.5,3.78,4.21,119.47,10.33,13.69,,20.1
1618745111.6863663,0.5,3.78,4.21,119.47,10.33,13.69,,20.1
1618745111.782328,0.5,3.51,4.04,119.47,10.33,13.61,,20.1
1618745111.8753343,0.5,3.51,4.04,119.47,10.33,13.61,,20.1
1618745111.9703257,0.5,3.51,4.04,119.47,10.33,13.61,,20.1
1618745112.0653253,0.5,3.32,4.04,119.47,10.33,13.63,,20.1
1618745112.1603265,0.5,3.32,3.71,120.36,10.16,13.63,,20.1
1618745112.2563334,0.5,3.32,3.71,120.36,10.16,13.63,,20.1
1618745112.3523235,0.5,2.86,3.71,120.36,10.16,13.63,,20.2
1618745112.4473248,0.5,2.86,3.71,120.36,10.16,13.63,,20.2
1618745112.543327,0.5,2.86,3.74,120.65,10.16,13.63,,20.2
1618745112.6383638,0.5,2.86,3.74,120.65,10.24,13.63,,20.2
1618745112.732334,0.5,3.54,3.74,120.65,10.24,13.63,,20.2
1618745112.8273358,0.5,3.54,4.4,119.84,10.24,13.63,,20.2
1618745112.922332,0.5,3.54,4.4,119.84,10.16,13.63,,20.2
1618745113.0183258,0.5,3.54,4.4,119.84,10.16,13.79,,20.2
1618745113.11333,0.5,3.96,4.18,119.84,10.16,13.79,,20.2
1618745113.2083316,0.5,3.96,4.18,120.8,10.2,13.79,,20.2
1618745113.3023283,0.5,3.96,4.18,120.8,10.2,13.79,,20.2
1618745113.3973374,0.5,3.96,4.18,120.8,10.2,13.79,,20.2
1618745113.4923372,0.5,3.08,3.93,120.8,10.2,13.81,,20.2
1618745113.5863678,0.5,3.08,3.93,120.72,10.08,13.81,,20.2
1618745113.6813297,0.5,3.08,3.93,120.72,10.08,13.81,,20.2
1618745113.776329,0.5,3.0,3.93,120.72,10.08,13.81,,20.2
1618745113.8723269,0.5,3.0,4.23,121.8,10.21,13.81,,20.2
1618745113.9663658,0.5,3.0,4.23,121.8,10.21,13.81,,20.2
1618745114.0593295,0.5,3.75,4.23,121.8,10.21,13.72,,20.2
1618745114.1533263,0.5,3.75,4.23,121.8,10.21,13.72,,20.2
1618745114.2323334,0.5,3.75,3.99,121.44,10.21,13.72,,20.2
1618745114.3273275,0.5,3.75,3.99,121.44,10.21,13.72,,20.2
1618745114.422333,0.5,3.75,3.99,121.44,10.21,13.71,,20.2
1618745114.517333,0.5,3.5,3.55,122.3,10.21,13.71,,20.2
1618745114.5963287,0.5,3.5,3.55,122.3,10.21,13.71,,20.2
1618745114.691333,0.5,3.5,3.55,122.3,10.21,13.71,,20.2
1618745114.7863255,0.5,3.5,3.55,122.3,10.21,13.71,,20.2
1618745114.880333,0.5,3.29,3.76,122.3,10.21,13.71,,20.2
1618745114.9753268,0.5,3.29,3.76,121.51,10.27,13.71,,20.2
1618745115.0703533,0.5,3.29,3.76,121.51,10.27,13.71,,20.2
1618745115.1653364,0.5,3.31,3.95,121.51,10.27,13.71,,20.2
1618745115.2603297,0.5,3.31,3.95,121.99,10.2,13.71,,20.2
1618745115.3553693,0.6,3.31,3.95,121.99,10.2,13.71,,20.2
1618745115.4343278,0.6,3.53,3.95,121.99,10.2,13.75,,20.2
1618745115.530332,0.6,3.53,3.95,121.99,10.2,13.75,,20.2
1618745115.6263306,0.6,3.53,3.54,121.99,10.2,13.75,,20.2
1618745115.7213306,0.6,3.53,3.54,121.99,10.2,13.75,,20.2
1618745115.8323314,0.6,3.33,3.54,121.99,10.2,13.79,,20.2
1618745115.9423327,0.6,3.33,3.98,122.69,10.2,13.79,,20.2
1618745116.052338,0.5,3.33,3.98,122.69,10.21,13.79,,20.2
1618745116.164324,0.5,3.33,3.98,122.69,10.21,13.79,,20.2
1618745116.2583337,0.5,3.75,4.01,122.69,10.21,13.79,,20.2
1618745116.3523276,0.6,3.75,4.01,123.25,10.2,13.79,,20.2
1618745116.4483259,0.6,3.75,4.01,123.25,10.2,13.79,,20.2
1618745116.543327,0.6,3.51,4.21,123.25,10.2,13.8,,20.2
1618745116.6373272,0.6,3.51,4.21,121.92,10.2,13.8,,20.2
1618745116.7323291,0.5,3.51,4.21,121.92,10.2,13.8,,20.2
1618745116.8283346,0.5,3.09,4.21,121.92,10.2,13.79,,20.2
1618745116.9223366,0.5,3.09,3.73,122.17,10.2,13.79,,20.2
1618745117.018334,0.5,3.09,3.73,122.17,10.24,13.79,,20.2
1618745117.112324,0.5,3.09,3.73,122.17,10.24,13.79,,20.2
1618745117.2073326,0.5,3.53,3.73,122.17,10.24,13.79,,20.2
1618745117.3013315,0.5,3.53,3.78,123.56,10.24,13.79,,20.2
1618745117.396327,0.5,3.53,3.78,123.56,10.24,13.79,,20.2
1618745117.4923663,0.5,3.53,3.78,123.56,10.24,13.82,,20.2
1618745117.5883365,0.5,3.5,3.92,123.56,10.24,13.82,,20.2
1618745117.6833436,0.5,3.5,3.92,123.56,10.24,13.82,,20.2
1618745117.7793422,0.5,3.5,3.92,123.56,10.24,13.83,,20.2
1618745117.874347,0.5,3.3,4.2,123.56,10.24,13.83,,20.2
1618745117.9683332,0.5,3.3,4.2,123.54,10.13,13.83,,20.2
1618745118.0643358,0.5,3.3,4.2,123.54,10.13,13.83,,20.2
1618745118.1583335,0.5,3.3,4.2,123.54,10.13,13.83,,20.2
1618745118.2543545,0.5,3.09,3.98,123.54,10.13,13.83,,20.2
1618745118.3493347,0.5,3.09,3.98,123.82,10.24,13.83,,20.2
1618745118.443357,0.5,3.09,3.98,123.82,10.24,13.83,,20.2
1618745118.539368,0.5,3.46,3.98,123.82,10.24,13.85,,20.2
1618745118.6343253,0.5,3.46,3.74,1.0,10.24,13.85,,20.2
1618745118.729333,0.6,3.46,3.74,1.0,10.24,13.85,,20.2
1618745118.8253396,0.6,3.31,3.74,1.0,10.24,13.87,,20.2
1618745118.9183319,0.6,3.31,3.74,1.0,10.24,13.87,,20.2
1618745119.0143383,0.6,3.31,4.23,124.38,10.24,13.87,,20.2
1618745119.1233332,0.5,3.31,4.23,124.38,10.12,13.87,,20.2
1618745119.2183268,0.5,3.31,4.23,124.38,10.12,13.87,,20.2
1618745119.3133292,0.5,3.32,3.98,124.67,10.12,13.87,,20.2
1618745119.4073353,0.6,3.32,3.98,124.67,10.21,13.87,,20.2
1618745119.5023324,0.6,3.32,3.98,124.67,10.21,13.85,,20.2
1618745119.59633,0.6,3.97,3.96,124.67,10.21,13.85,,20.2
1618745119.6913297,0.6,3.97,3.96,124.06,10.16,13.85,,20.2
1618745119.7863367,0.5,3.97,3.96,124.06,10.16,13.85,,20.2
1618745119.8823302,0.5,3.53,3.96,124.06,10.16,13.81,,20.2
1618745119.9783401,0.5,3.53,3.96,124.06,10.16,13.81,,20.2
1618745120.0723298,0.5,3.53,4.2,124.02,10.24,13.81,,20.2
1618745120.1683357,0.5,3.53,4.2,124.02,10.24,13.81,,20.2
1618745120.263346,0.5,3.54,4.2,124.02,10.24,13.81,,20.2
1618745120.3583262,0.5,3.54,4.01,124.26,10.24,13.81,,20.2
1618745120.4523246,0.5,3.54,4.01,124.26,10.25,13.81,,20.2
1618745120.546325,0.5,3.98,4.01,124.26,10.25,13.93,,20.2
1618745120.6403284,0.5,3.98,3.99,124.73,10.25,13.93,,20.2
1618745120.7353275,0.5,3.98,3.99,124.73,10.25,13.93,,20.2
1618745120.8303263,0.5,3.98,3.99,124.73,10.25,13.93,,20.2
1618745120.9253254,0.5,3.98,3.99,124.73,10.25,13.97,,20.2
1618745121.0203352,0.5,3.29,3.96,124.73,10.25,13.97,,20.2
1618745121.1153262,0.5,3.29,3.96,125.44,10.09,13.97,,20.2
1618745121.2093682,0.5,3.29,3.96,125.44,10.09,13.98,,20.2
1618745121.3043315,0.5,3.73,4.47,125.44,10.09,13.98,,20.2
1618745121.3983393,0.5,3.73,4.47,125.72,10.2,13.98,,20.2
1618745121.4943268,0.5,3.73,4.47,125.72,10.2,13.98,,20.2
1618745121.5893254,0.5,3.73,4.47,125.72,10.2,13.98,,20.2
1618745121.6834695,0.5,3.32,3.98,125.72,10.2,14.03,,20.2
1618745121.7795043,0.5,3.32,3.98,124.78,10.32,14.03,,20.2
1618745121.8744717,0.5,3.32,3.98,124.78,10.32,14.03,,20.2
1618745121.9695053,0.5,3.51,3.98,124.78,10.32,14.02,,20.2
1618745122.0644708,0.5,3.51,4.43,125.38,10.32,14.02,,20.2
1618745122.1595085,0.5,3.51,4.43,125.38,10.32,14.02,,20.2
1618745122.2544727,0.5,3.51,4.43,125.38,10.32,13.99,,20.2
1618745122.350464,0.5,3.51,3.98,125.65,10.32,13.99,,20.2
1618745122.4444668,0.5,3.51,3.98,125.65,10.32,13.99,,20.2
1618745122.538476,0.5,3.51,3.98,125.65,10.29,13.99,,20.2
1618745122.6324682,0.5,3.51,3.98,125.65,10.29,13.95,,20.2
1618745122.7284782,0.5,3.27,3.98,125.54,10.29,13.95,,20.2
1618745122.8244674,0.5,3.27,3.98,125.54,10.21,13.95,,20.2
1618745122.9194665,0.5,3.27,3.98,125.54,10.21,13.82,,20.2
1618745123.0134716,0.5,3.53,3.96,125.54,10.21,13.82,,20.2
1618745123.1224775,0.5,3.53,3.96,126.15,10.17,13.82,,20.2
1618745123.2185032,0.6,3.53,3.96,126.15,10.17,13.82,,20.2
1618745123.3134775,0.6,3.55,3.96,126.15,10.17,13.82,,20.2
1618745123.4074645,0.6,3.55,3.96,126.15,10.17,13.82,,20.2
1618745123.5016534,0.6,3.55,4.23,126.44,10.16,13.82,,20.2
1618745123.5966632,0.6,3.55,4.23,126.44,10.16,13.82,,20.2
1618745123.690661,0.6,2.84,4.23,126.44,10.16,13.77,,20.2
1618745123.7846556,0.6,2.84,3.93,126.71,10.16,13.77,,20.2
1618745123.8796601,0.5,2.84,3.93,126.71,10.16,13.77,,20.2
1618745123.9716554,0.5,3.53,3.93,126.71,10.16,13.76,,20.2
1618745124.079657,0.5,3.53,3.74,126.04,10.16,13.76,,20.2
1618745124.174656,0.5,3.53,3.74,126.04,10.2,13.76,,20.2
1618745124.269653,0.5,3.53,3.74,126.04,10.2,13.74,,20.2
1618745124.347651,0.5,3.53,3.74,126.04,10.2,13.74,,20.2
1618745124.4576545,0.5,3.53,3.76,126.04,10.2,13.74,,20.2
1618745124.5526524,0.5,3.53,3.76,126.96,10.17,13.74,,20.2
1618745124.647661,0.6,3.53,3.76,126.96,10.17,13.74,,20.2
1618745124.7426548,0.6,3.72,3.55,126.96,10.17,13.72,,20.2
1618745124.8386524,0.6,3.72,3.55,126.53,10.17,13.72,,20.2
1618745124.9336529,0.5,3.72,3.55,126.53,10.17,13.72,,20.2
1618745125.027654,0.5,3.69,3.55,126.53,10.17,13.7,,20.2
1618745125.121664,0.5,3.69,3.77,129.09,10.24,13.7,,20.2
1618745125.2156515,0.5,3.69,3.77,129.09,10.24,13.7,,20.2
1618745125.3096538,0.6,3.69,3.77,129.09,10.24,13.7,,20.2
1618745125.4046562,0.6,3.76,3.77,129.09,10.24,13.7,,20.2
1618745125.4976537,0.6,3.76,3.74,127.47,10.24,13.7,,20.2
1618745125.5926528,0.5,3.76,3.74,127.47,10.2,13.7,,20.2
1618745125.6856582,0.5,3.76,3.74,127.47,10.2,13.7,,20.2
1618745125.779656,0.5,3.55,3.74,128.25,10.2,13.7,,20.2
1618745125.8746555,0.5,3.55,3.74,128.25,10.16,13.7,,20.2
1618745125.9706538,0.5,3.55,3.74,128.25,10.16,13.7,,20.2
1618745126.064663,0.5,3.55,3.74,128.25,10.16,13.71,,20.2
1618745126.1596503,0.5,3.75,4.21,128.25,10.16,13.71,,20.2
1618745126.2536564,0.5,3.75,4.21,126.09,10.28,13.71,,20.2
1618745126.3496614,0.5,3.75,4.21,126.09,10.28,13.71,,20.2
1618745126.4436529,0.5,3.31,3.74,126.09,10.28,13.71,,20.2
1618745126.537655,0.5,3.31,3.74,128.19,10.2,13.71,,20.2
1618745126.6326983,0.6,3.31,3.74,128.19,10.2,13.71,,20.2
1618745126.7286594,0.6,3.31,3.74,128.19,10.2,13.71,,20.2
1618745126.8226569,0.6,3.31,3.98,128.71,10.21,13.71,,20.2
1618745126.9176593,0.6,3.31,3.98,128.71,10.21,13.71,,20.2
1618745127.011653,0.4,3.31,3.98,128.71,10.21,13.71,,20.2
1618745127.1066556,0.4,3.53,3.98,128.71,10.21,13.71,,20.2
1618745127.2016604,0.4,3.53,3.71,129.03,10.21,13.71,,20.2
1618745127.3126626,0.5,3.53,3.71,129.03,10.2,13.71,,20.2
1618745127.4056551,0.5,3.31,3.71,129.03,10.2,13.71,,20.2
1618745127.500655,0.5,3.31,4.18,129.38,10.2,13.71,,20.2
1618745127.5946593,0.4,3.31,4.18,129.38,10.21,13.71,,20.2
1618745127.689661,0.4,3.31,4.18,129.38,10.21,13.74,,20.2
1618745127.784693,0.4,3.31,3.74,129.38,10.21,13.74,,20.2
1618745127.8796642,0.4,3.31,3.74,129.38,10.21,13.74,,20.2
1618745127.9736564,0.7,3.31,3.74,130.36,10.21,13.74,,20.2
1618745128.0696716,0.7,3.31,3.74,130.36,10.21,13.74,,20.2
1618745128.1636543,0.7,3.31,3.73,130.36,10.21,13.76,,20.2
1618745128.258657,0.7,3.31,3.73,129.55,10.32,13.76,,20.2
1618745128.354691,0.6,3.31,3.73,129.55,10.32,13.76,,20.2
1618745128.4496665,0.6,3.31,3.73,129.55,10.32,13.76,,20.2
1618745128.5456507,0.6,3.31,3.74,130.81,10.08,13.76,,20.2
1618745128.638661,0.5,3.31,3.74,130.81,10.08,13.76,,20.2
1618745128.7336564,0.5,3.31,3.74,130.81,10.08,13.76,,20.2
1618745128.82667,0.5,3.11,3.74,130.81,10.08,13.81,,20.2
1618745128.9226592,0.5,3.11,3.55,129.77,10.08,13.81,,20.2
1618745129.0166771,0.6,3.11,3.55,129.77,10.08,13.81,,20.2
1618745129.1126583,0.6,3.11,3.55,129.77,10.08,13.85,,20.2
1618745129.2216535,0.6,3.09,3.96,130.02,10.08,13.85,,20.2
1618745129.316658,0.6,3.09,3.96,130.02,10.24,13.85,,20.2
1618745129.4126523,0.6,3.09,3.96,130.02,10.24,13.85,,20.2
1618745129.506654,0.6,3.08,3.76,130.02,10.24,13.85,,20.2
1618745129.6156533,0.6,3.08,3.76,130.08,10.2,13.85,,20.2
1618745129.7106516,0.6,3.08,3.76,130.08,10.2,13.9,,20.2
1618745129.804657,0.6,3.08,3.76,130.08,10.2,13.9,,20.2
1618745129.8996534,0.6,3.51,3.78,130.08,10.2,13.9,,20.2
1618745129.9946542,0.6,3.51,3.78,130.08,10.2,13.9,,20.2
1618745130.0906544,0.6,3.51,3.78,130.08,10.2,13.9,,20.2
1618745130.1856523,0.6,3.33,3.78,130.08,10.2,13.91,,20.2
1618745130.2806756,0.6,3.33,3.77,130.02,10.16,13.91,,20.2
1618745130.3736558,0.6,3.33,3.77,130.02,10.16,13.91,,20.2
1618745130.4676678,0.6,2.63,3.77,130.02,10.16,13.9,,20.2
1618745130.5636768,0.6,2.63,3.96,131.09,10.16,13.9,,20.2
1618745130.6586912,0.6,2.63,3.96,131.09,10.16,13.9,,20.2
1618745130.753671,0.5,2.63,3.96,131.09,10.24,13.9,,20.2
1618745130.8476636,0.5,2.63,3.96,131.09,10.24,13.9,,20.2
1618745130.9426656,0.5,3.31,3.74,143.98,10.24,13.9,,20.2
1618745131.0366561,0.5,3.31,3.74,143.98,10.24,13.9,,20.2
1618745131.1321974,0.5,3.31,3.74,143.98,10.24,13.0,,20.2
1618745131.2281866,0.5,3.31,3.98,143.98,10.24,13.0,,20.2
1618745131.3211913,0.5,3.31,3.98,142.03,10.2,13.0,,20.2
1618745131.416188,0.5,3.31,3.98,142.03,10.2,13.0,,20.2
1618745131.5131876,0.5,3.31,3.98,142.03,10.2,13.0,,20.2
1618745131.6071908,0.5,3.53,3.73,142.03,10.2,13.85,,20.2
1618745131.7021935,0.5,3.53,3.73,143.74,10.16,13.85,,20.2
1618745131.7971866,0.5,3.53,3.73,143.74,10.16,13.85,,20.2
1618745131.8911896,0.5,3.76,3.73,143.74,10.16,13.82,,20.2
1618745131.9871945,0.5,3.76,3.29,140.21,10.2,13.82,,20.2
1618745132.0811872,0.6,3.76,3.29,140.21,10.2,13.82,,20.2
1618745132.177187,0.6,3.98,3.29,140.21,10.2,13.8,,20.2
1618745132.2721875,0.6,3.98,3.74,144.35,10.2,13.8,,20.2
1618745132.3831837,0.5,3.98,3.74,144.35,10.16,13.8,,20.2
1618745132.4802861,0.5,3.98,3.74,144.35,10.16,13.8,,20.2
1618745132.592275,0.5,2.18,3.81,144.35,10.16,13.8,,20.2
1618745132.6872706,0.5,2.18,3.81,144.35,10.16,13.8,,20.2
1618745132.7812717,0.5,2.18,3.81,142.8,10.16,13.8,,20.2
1618745132.8772695,0.5,2.18,3.81,142.8,10.16,13.81,,20.2
1618745132.9732726,0.5,3.1,3.51,142.8,10.16,13.81,,20.2
1618745133.0692687,0.5,3.1,3.51,145.15,10.2,13.81,,20.2
1618745133.1642778,0.5,3.1,3.51,145.15,10.2,13.81,,20.2
1618745133.2623298,0.5,3.05,3.96,145.15,10.2,13.82,,20.2
1618745133.371273,0.5,3.05,3.96,144.26,10.16,13.82,,20.2
1618745133.4662817,0.5,3.05,3.96,144.26,10.16,13.82,,20.2
1618745133.561281,0.5,3.75,3.96,144.26,10.16,13.82,,20.2
1618745133.6562734,0.5,3.75,4.01,144.14,10.16,13.82,,20.2
1618745133.7512746,0.5,3.75,4.01,144.14,10.16,13.82,,20.2
1618745133.8462784,0.6,3.75,4.01,144.14,10.2,13.82,,20.2
1618745133.9422739,0.6,3.32,4.01,144.14,10.2,13.81,,20.2
1618745134.037271,0.6,3.32,3.77,143.94,10.2,13.81,,20.2
1618745134.1312716,0.5,3.32,3.77,143.94,10.28,13.81,,20.2
1618745134.225271,0.5,3.32,3.77,143.94,10.28,13.81,,20.2
1618745134.3202817,0.5,3.29,4.2,143.94,10.28,13.81,,20.2
1618745134.4162717,0.6,3.29,4.2,144.4,10.28,13.81,,20.2
1618745134.512278,0.6,3.29,4.2,144.4,10.28,13.81,,20.2
1618745134.6072814,0.6,3.29,4.2,144.4,10.28,13.81,,20.2
1618745134.716276,0.6,3.55,3.74,144.4,10.28,13.81,,20.2
1618745134.812309,0.5,3.55,3.74,144.52,10.32,13.81,,20.2
1618745134.9073048,0.5,3.55,3.74,144.52,10.32,13.81,,20.2
1618745135.003312,0.5,3.55,3.8,144.52,10.32,13.81,,20.2
1618745135.0983453,0.5,3.55,3.8,143.97,10.28,13.81,,20.2
1618745135.1933424,0.5,3.55,3.8,143.97,10.28,13.81,,20.2
1618745135.2893453,0.5,3.29,3.8,143.97,10.28,13.81,,20.2
1618745135.384346,0.5,3.29,3.8,144.38,10.16,13.81,,20.2
1618745135.4803426,0.6,3.29,3.8,144.38,10.16,13.81,,20.2
1618745135.574346,0.6,3.29,3.8,144.38,10.16,13.81,,20.2
1618745135.6703467,0.6,3.09,3.8,144.38,10.16,13.85,,20.2
1618745135.7783616,0.6,3.09,3.95,137.29,10.16,13.85,,20.2
1618745135.8743472,0.6,3.09,3.95,137.29,10.16,13.85,,20.2
1618745135.96934,0.6,3.09,3.95,137.29,10.16,13.88,,20.2
1618745136.0643425,0.6,3.75,3.96,136.43,10.16,13.88,,20.2
1618745136.1603427,0.5,3.75,3.96,136.43,10.2,13.88,,20.2
1618745136.2553484,0.5,3.75,3.96,136.43,10.2,13.92,,20.2
1618745136.3493547,0.5,3.72,3.77,136.43,10.2,13.92,,20.2
1618745136.443375,0.4,3.72,3.77,136.31,10.2,13.92,,20.2
1618745136.5393424,0.4,3.72,3.77,136.31,10.2,13.92,,20.2
1618745136.6353462,0.4,3.72,3.77,136.31,10.2,13.92,,20.2
1618745136.7293458,0.4,3.32,3.99,136.31,10.2,13.92,,20.2
1618745136.8253443,0.4,3.32,3.99,135.51,10.24,13.92,,20.2
1618745136.9203415,0.5,3.32,3.99,135.51,10.24,13.92,,20.2
1618745137.0173435,0.5,3.09,3.99,135.51,10.24,13.85,,20.2
1618745137.1113431,0.5,3.09,4.2,136.19,10.24,13.85,,20.2
1618745137.2063427,0.6,3.09,4.2,136.19,10.14,13.85,,20.2
1618745137.3003519,0.6,3.73,4.2,136.19,10.14,13.78,,20.2
1618745137.3963401,0.6,3.73,3.54,135.83,10.14,13.78,,20.2
1618745137.4903545,0.6,3.73,3.54,135.83,10.14,13.78,,20.2
1618745137.5853484,0.5,3.73,3.54,135.83,10.24,13.78,,20.2
1618745137.6813433,0.5,3.73,3.54,135.83,10.24,13.72,,20.2
1618745137.7763433,0.5,3.31,4.01,135.37,10.24,13.72,,20.2
1618745137.871344,0.5,3.31,4.01,135.37,10.13,13.72,,20.2
1618745137.9683516,0.5,3.31,4.01,135.37,10.13,13.72,,20.2
1618745138.062343,0.5,3.28,3.98,135.37,10.13,13.72,,20.2
1618745138.157355,0.5,3.28,3.98,135.29,10.24,13.72,,20.2
1618745138.2523427,0.6,3.28,3.98,135.29,10.24,13.72,,20.2
1618745138.3463418,0.6,3.28,3.98,135.29,10.24,13.72,,20.2
1618745138.4403424,0.6,3.11,3.76,135.29,10.24,13.75,,20.2
1618745138.5353472,0.6,3.11,3.76,135.29,10.24,13.75,,20.2
1618745138.6323438,0.6,3.11,3.76,135.29,10.24,13.75,,20.2
1618745138.7263393,0.6,3.29,3.76,135.29,10.24,13.8,,20.2
1618745138.8193512,0.6,3.29,3.96,136.41,10.24,13.8,,20.2
1618745138.9123728,0.5,3.29,3.96,136.41,10.2,13.8,,20.2
1618745139.0063412,0.5,3.54,3.96,136.41,10.2,13.8,,20.2
1618745139.101349,0.5,3.54,3.93,135.14,10.2,13.8,,20.2
1618745139.197362,0.5,3.54,3.93,135.14,10.2,13.8,,20.2
1618745139.29134,0.5,3.54,3.93,135.14,10.25,13.8,,20.2
1618745139.3863528,0.5,3.54,3.93,135.14,10.25,13.83,,20.2
1618745139.4953551,0.5,3.53,3.74,135.14,10.25,13.83,,20.2
1618745139.5903413,0.6,3.53,3.74,135.14,10.25,13.83,,20.2
1618745139.6843448,0.6,3.53,3.74,135.14,10.25,13.83,,20.2
1618745139.779344,0.6,3.28,4.04,135.14,10.25,13.83,,20.2
1618745139.8733454,0.6,3.28,4.04,135.51,10.2,13.83,,20.2
1618745139.9683447,0.5,3.28,4.04,135.51,10.2,13.83,,20.2
1618745140.0643506,0.5,3.31,4.04,135.51,10.2,13.83,,20.2
1618745140.1603491,0.5,3.31,3.78,134.95,10.21,13.83,,20.2
1618745140.2563834,0.5,3.31,3.78,134.95,10.21,13.83,,20.2
1618745140.3513439,0.5,3.31,3.78,134.95,10.21,13.83,,20.2
1618745140.4463453,0.5,3.29,3.78,134.95,10.21,13.79,,20.2
1618745140.5413427,0.5,3.29,4.15,135.72,10.21,13.79,,20.2
1618745140.635355,0.5,3.29,4.15,135.72,10.21,13.79,,20.2
1618745140.7303426,0.5,3.29,4.15,135.72,10.21,13.79,,20.2
1618745140.8243465,0.5,3.33,3.74,135.72,10.21,13.79,,20.2
1618745140.9183464,0.5,3.33,3.74,135.48,10.28,13.79,,20.2
1618745141.0123484,0.5,3.33,3.74,135.48,10.28,13.78,,20.2
1618745141.107359,0.5,3.32,3.55,135.48,10.28,13.78,,20.2
1618745141.2173455,0.5,3.32,3.55,135.16,10.24,13.78,,20.2
1618745141.3123543,0.5,3.32,3.55,135.16,10.24,13.78,,20.2
1618745141.4073656,0.5,3.32,3.55,135.16,10.24,13.78,,20.2
1618745141.502348,0.5,3.31,3.55,135.16,10.24,13.78,,20.2
1618745141.5973413,0.5,3.31,3.55,136.25,10.29,13.78,,20.2
1618745141.7083445,0.5,3.31,3.55,136.25,10.29,13.78,,20.2
1618745141.803349,0.5,3.92,3.55,136.25,10.29,13.78,,20.2
1618745141.897347,0.5,3.92,3.95,135.05,10.29,13.78,,20.2
1618745141.9933417,0.5,3.92,3.95,135.05,10.28,13.78,,20.2
1618745142.088345,0.5,3.09,3.95,135.05,10.28,13.78,,20.2
1618745142.1833398,0.5,3.09,3.96,136.43,10.28,13.78,,20.2
1618745142.279346,0.5,3.09,3.96,136.43,10.24,13.78,,20.2
1618745142.3753436,0.5,3.09,3.96,136.43,10.24,13.78,,20.2
1618745142.4703417,0.5,3.09,3.96,136.43,10.24,13.78,,20.2
1618745142.5663745,0.5,3.09,3.99,136.43,10.24,13.78,,20.2
1618745142.676344,0.6,3.09,3.99,135.83,10.28,13.78,,20.2
1618745142.7703524,0.6,3.09,3.99,135.83,10.28,13.78,,20.2
1618745142.866343,0.6,3.51,3.98,135.83,10.28,13.77,,20.2
1618745142.979361,0.6,3.51,3.98,132.08,10.28,13.77,,20.2
1618745143.0853515,0.6,3.51,3.98,132.08,10.28,13.77,,20.2
1618745143.1813605,0.6,2.19,3.98,132.08,10.28,13.76,,20.2
1618745143.2903416,0.6,2.19,3.74,136.31,10.28,13.76,,20.2
1618745143.3853457,0.6,2.19,3.74,136.31,10.2,13.76,,20.2
1618745143.4803534,0.6,3.76,3.74,136.31,10.2,13.75,,20.2
1618745143.5753582,0.6,3.76,4.2,144.11,10.2,13.75,,20.2
1618745143.654342,0.5,3.76,4.2,144.11,10.28,13.75,,20.2
1618745143.749349,0.5,3.76,4.2,144.11,10.28,13.74,,20.2
1618745143.8423436,0.5,3.98,3.99,133.9,10.28,13.74,,20.2
1618745143.9363613,0.5,3.98,3.99,133.9,10.28,13.74,,20.2
1618745144.0163453,0.6,3.98,3.99,133.9,10.24,13.74,,20.2
1618745144.1113503,0.6,3.98,3.99,133.9,10.24,13.73,,20.2
1618745144.204415,0.6,3.29,3.54,133.9,10.24,13.73,,20.2
1618745144.29941,0.6,3.29,3.54,127.18,10.12,13.73,,20.2
1618745144.3954394,0.6,3.29,3.54,127.18,10.12,13.73,,20.2
1618745144.4904404,0.6,3.09,3.54,127.18,10.12,13.73,,20.2
1618745144.5858934,0.6,3.09,3.99,135.29,10.2,13.73,,20.2
1618745144.6654232,0.6,3.09,3.99,135.29,10.2,13.73,,20.2
1618745144.7584178,0.5,3.09,3.99,135.29,10.2,13.73,,20.2
1618745144.853426,0.5,3.75,3.99,135.29,10.2,13.74,,20.2
1618745144.9484148,0.5,3.75,3.76,135.63,10.2,13.74,,20.2
1618745145.0274117,0.3,3.75,3.76,135.63,10.2,13.74,,20.2
1618745145.121412,0.3,3.5,3.76,135.63,10.2,13.79,,20.2
1618745145.21641,0.3,3.5,3.76,135.63,10.2,13.79,,20.2
1618745145.3124125,0.3,3.5,4.16,136.81,10.2,13.79,,20.2
1618745145.4094126,0.4,3.5,4.16,136.81,10.24,13.79,,20.2
1618745145.504411,0.4,3.5,4.16,136.81,10.24,14.04,,20.2
1618745145.5974119,0.4,3.51,3.9,136.81,10.24,14.04,,20.2
1618745145.7104115,0.6,3.51,3.9,136.98,10.16,14.04,,20.2
1618745145.8044147,0.6,3.51,3.9,136.98,10.16,14.01,,20.2
1618745145.8994145,0.6,3.94,4.42,136.98,10.16,14.01,,20.2
1618745145.9934208,0.6,3.94,4.42,135.99,10.2,14.01,,20.2
1618745146.0884166,0.7,3.94,4.42,135.99,10.2,14.01,,20.2
1618745146.1834478,0.7,3.94,4.42,135.99,10.2,14.01,,20.2
1618745146.2784152,0.7,3.53,3.95,135.99,10.2,13.98,,20.2
1618745146.3734255,0.7,3.53,3.95,135.71,10.2,13.98,,20.2
1618745146.468423,0.6,3.53,3.95,135.71,10.2,13.98,,20.2
1618745146.563437,0.6,3.31,3.95,135.71,10.2,13.95,,20.2
1618745146.658414,0.6,3.31,3.51,131.34,10.2,13.95,,20.2
1618745146.75342,0.5,3.31,3.51,131.34,10.28,13.95,,20.2
1618745146.8494117,0.5,3.73,3.51,131.34,10.28,13.78,,20.2
1618745146.94441,0.5,3.73,3.76,131.59,10.28,13.78,,20.2
1618745147.0394158,0.5,3.73,3.76,131.59,10.28,13.78,,20.2
1618745147.1344202,0.6,3.73,3.76,131.59,10.2,13.78,,20.2
1618745147.2294743,0.6,3.73,3.76,131.59,10.2,13.82,,20.2
1618745147.324414,0.6,3.12,3.96,131.59,10.2,13.82,,20.2
1618745147.420415,0.6,3.12,3.96,132.94,10.21,13.82,,20.2
1618745147.530414,0.6,3.12,3.96,132.94,10.21,13.86,,20.2
1618745147.6234174,0.6,3.97,4.43,132.94,10.21,13.86,,20.2
1618745147.7014477,0.6,3.97,4.43,133.63,10.2,13.86,,20.2
1618745147.7954216,0.2,3.97,4.43,133.63,10.2,13.86,,20.2
1618745147.8904214,0.2,3.97,4.43,133.63,10.2,13.86,,20.2
1618745147.9864378,0.2,3.5,4.43,133.63,10.2,13.87,,20.2
1618745148.0644188,0.2,3.5,3.76,133.34,10.28,13.87,,20.2
1618745148.1604111,0.7,3.5,3.76,133.34,10.28,13.87,,20.2
1618745148.2554173,0.7,3.53,3.76,133.34,10.28,13.93,,20.2
1618745148.3514202,0.7,3.53,3.76,129.88,10.28,13.93,,20.2
1618745148.4464176,0.3,3.53,3.76,129.88,10.28,13.93,,20.2
1618745148.5404103,0.3,3.53,3.76,129.88,10.28,13.97,,20.2
1618745148.6354225,0.3,3.53,3.76,129.88,10.28,13.97,,20.2
1618745148.7144167,0.3,2.88,3.55,132.42,10.28,13.97,,20.2
1618745148.8084173,0.6,2.88,3.55,132.42,10.2,13.97,,20.2
1618745148.9004178,0.6,2.88,3.55,132.42,10.2,13.97,,20.2
1618745148.9954112,0.6,3.33,3.95,132.42,10.2,13.97,,20.2
1618745149.07141,0.6,3.33,3.95,132.42,10.21,13.97,,20.2
1618745149.1664197,0.6,3.33,3.95,132.42,10.21,13.97,,20.2
1618745149.2604198,0.6,3.33,3.95,132.42,10.21,13.97,,20.2
1618745149.3554106,0.6,3.69,3.95,132.42,10.21,13.97,,20.2
1618745149.4504135,0.6,3.69,3.96,132.54,10.21,13.97,,20.2
1618745149.5454142,0.6,3.69,3.96,132.54,10.21,13.97,,20.2
1618745149.6404126,0.6,2.6,3.96,132.54,10.21,13.91,,20.2
1618745149.734419,0.6,2.6,3.95,140.04,10.21,13.91,,20.2
1618745149.8274174,0.5,2.6,3.95,140.04,10.13,13.91,,20.2
1618745149.9204216,0.5,2.6,3.95,140.04,10.13,13.87,,20.2
1618745150.0154204,0.5,3.53,4.01,133.35,10.13,13.87,,20.2
1618745150.1084197,0.5,3.53,4.01,133.35,10.13,13.87,,20.2
1618745150.2044125,0.6,3.53,4.01,133.35,10.32,13.87,,20.2
1618745150.2994182,0.6,3.53,4.01,133.35,10.32,13.89,,20.2
1618745150.3954396,0.6,3.55,3.54,133.35,10.32,13.89,,20.2
1618745150.4904184,0.6,3.55,3.54,132.73,10.16,13.89,,20.2
1618745150.585415,0.6,3.55,3.54,132.73,10.16,13.89,,20.2
1618745150.6804214,0.6,3.73,3.52,132.73,10.16,13.98,,20.2
1618745150.7744153,0.6,3.73,3.52,134.04,10.08,13.98,,20.2
1618745150.8694162,0.6,3.73,3.52,134.04,10.08,13.98,,20.2
1618745150.9634237,0.6,3.51,3.52,134.04,10.08,14.04,,20.2
1618745151.0584102,0.6,3.51,3.52,134.04,10.08,14.04,,20.2
1618745151.1544108,0.6,3.51,4.4,133.46,10.08,14.04,,20.2
1618745151.2484457,0.5,3.51,4.4,133.46,10.45,14.04,,20.2
1618745151.3434112,0.5,3.51,4.4,133.46,10.45,14.05,,20.2
1618745151.4384153,0.5,3.2,3.73,132.37,10.45,14.05,,20.2
1618745151.5334368,0.5,3.2,3.73,132.37,10.28,14.05,,20.2
1618745151.62741,0.5,3.2,3.73,132.37,10.28,14.04,,20.2
1618745151.7234194,0.5,3.72,3.74,132.37,10.28,14.04,,20.2
1618745151.8344152,0.5,3.72,3.74,132.76,10.24,14.04,,20.2
1618745151.92643,0.5,3.72,3.74,132.76,10.24,14.04,,20.2
1618745152.0394194,0.5,3.31,3.74,132.76,10.24,13.99,,20.2
1618745152.1334252,0.5,3.31,3.74,132.24,10.24,13.99,,20.2
1618745152.2284164,0.5,3.31,3.74,132.24,10.24,13.99,,20.2
1618745152.3234136,0.6,3.31,3.74,132.24,10.24,13.99,,20.2
1618745152.4174092,0.6,3.51,3.74,132.24,10.24,13.97,,20.2
1618745152.511411,0.6,3.51,3.55,133.25,10.24,13.97,,20.2
1618745152.622418,0.5,3.51,3.55,133.25,10.2,13.97,,20.2
1618745152.7174132,0.5,3.51,3.55,133.25,10.2,13.97,,20.2
1618745152.8124213,0.5,3.31,3.55,131.65,10.2,13.97,,20.2
1618745152.906411,0.5,3.31,3.55,131.65,10.25,13.97,,20.2
1618745153.0014498,0.5,3.31,3.55,131.65,10.25,13.97,,20.2
1618745153.0964131,0.5,3.54,3.49,131.65,10.25,13.97,,20.2
1618745153.1914136,0.5,3.54,3.49,131.65,10.25,13.97,,20.2
1618745153.2864232,0.5,3.54,3.49,133.24,10.24,13.97,,20.2
1618745153.3815646,0.5,3.54,3.49,133.24,10.24,13.97,,20.2
1618745153.4754176,0.5,3.97,3.98,133.24,10.24,13.97,,20.2
1618745153.5694144,0.5,3.97,3.98,133.34,10.2,13.97,,20.2
1618745153.6654115,0.5,3.97,3.98,133.34,10.2,13.97,,20.2
1618745153.7614229,0.5,3.73,3.98,133.34,10.2,13.97,,20.2
1618745153.8704126,0.5,3.73,3.54,132.43,10.2,13.97,,20.2
1618745153.9634101,0.5,3.73,3.54,132.43,10.27,13.97,,20.2
1618745154.0564232,0.5,3.54,3.54,132.43,10.27,1.0,,20.2
1618745154.151412,0.5,3.54,3.54,132.43,10.27,1.0,,20.2
1618745154.246412,0.5,3.54,3.99,133.44,10.27,1.0,,20.2
1618745154.3394167,0.6,3.54,3.99,133.44,10.24,1.0,,20.2
1618745154.4344172,0.6,3.54,3.99,133.44,10.24,13.96,,20.2
1618745154.528423,0.6,3.11,3.98,133.44,10.24,13.96,,20.2
1618745154.6234148,0.5,3.11,3.98,132.74,10.21,13.96,,20.2
1618745154.7174594,0.5,3.11,3.98,132.74,10.21,13.96,,20.2
1618745154.8114197,0.5,3.32,4.01,132.74,10.21,13.96,,20.2
1618745154.907416,0.5,3.32,4.01,131.83,10.21,13.96,,20.2
1618745155.0034313,0.6,3.32,4.01,131.83,10.21,13.96,,20.2
1618745155.0984461,0.6,3.32,4.01,131.83,10.21,13.96,,20.2
1618745155.1944094,0.6,3.09,4.01,131.83,10.21,13.89,,20.2
1618745155.2894115,0.6,3.09,3.74,132.1,10.15,13.89,,20.2
1618745155.3848348,0.6,3.09,3.74,132.1,10.15,13.89,,20.2
1618745155.4948752,0.6,3.33,3.74,132.1,10.15,13.82,,20.2
1618745155.5888302,0.6,3.33,4.23,130.72,10.15,13.82,,20.2
1618745155.683831,0.6,3.33,4.23,130.72,10.32,13.82,,20.2
1618745155.7798681,0.6,3.33,4.23,130.72,10.32,13.78,,20.2
1618745155.8748262,0.6,3.5,3.5,132.62,10.32,13.78,,20.2
1618745155.968829,0.6,3.5,3.5,132.62,10.36,13.78,,20.2
1618745156.0628662,0.6,3.5,3.5,132.62,10.36,13.78,,20.2
1618745156.1578376,0.6,3.5,3.5,132.62,10.36,13.76,,20.2
1618745156.253832,0.6,3.73,4.2,132.62,10.36,13.76,,20.2
1618745156.3478281,0.0,3.73,4.2,132.7,10.12,13.76,,20.2
1618745156.4428234,0.0,3.73,4.2,132.7,10.12,13.74,,20.2
1618745156.5378242,0.0,3.76,3.73,132.7,10.12,13.74,,20.2
1618745156.6328404,0.0,3.76,3.73,132.9,10.2,13.74,,20.2
1618745156.728824,0.5,3.76,3.73,132.9,10.2,13.74,,20.2
1618745156.8228343,0.5,3.0,3.73,132.9,10.2,13.75,,20.2
1618745156.916828,0.5,3.0,4.21,131.9,10.28,13.75,,20.2
1618745157.0118334,0.5,3.0,4.21,131.9,10.28,13.75,,20.2
1618745157.1068442,0.5,3.0,4.21,131.9,10.28,13.75,,20.2
1618745157.2018268,0.5,3.51,4.21,131.9,10.28,13.77,,20.2
1618745157.2968285,0.5,3.51,4.2,131.78,10.28,13.77,,20.2
1618745157.3928294,0.5,3.51,4.2,131.78,10.21,13.77,,20.2
1618745157.487825,0.5,3.51,4.2,131.78,10.21,13.79,,20.2
1618745157.5838249,0.5,3.57,4.2,131.38,10.21,13.79,,20.2
1618745157.679833,0.5,3.57,4.2,131.38,10.13,13.79,,20.2
1618745157.7738264,0.5,3.57,4.2,131.38,10.13,13.84,,20.2
1618745157.8698254,0.5,3.95,4.18,131.38,10.13,13.84,,20.2
1618745157.963868,0.5,3.95,4.18,131.38,10.13,13.84,,20.2
1618745158.0578287,0.5,3.95,4.18,132.18,10.29,13.84,,20.2
1618745158.1518316,0.5,3.95,4.18,132.18,10.29,13.84,,20.2
1618745158.2468228,0.5,3.53,4.18,132.18,10.29,13.94,,20.2
1618745158.3438601,0.5,3.53,4.43,131.46,10.25,13.94,,20.2
1618745158.4388309,0.5,3.53,4.43,131.46,10.25,13.94,,20.2
1618745158.533839,0.5,3.53,4.43,131.46,10.25,14.0,,20.2
1618745158.628878,0.5,3.53,3.55,139.5,10.25,14.0,,20.2
1618745158.7228332,0.5,3.53,3.55,139.5,10.2,14.0,,20.2
1618745158.8188243,0.5,3.53,3.55,139.5,10.2,14.0,,20.2
1618745158.9138792,0.5,3.53,3.55,139.5,10.2,13.98,,20.2
1618745159.0078228,0.5,3.06,3.78,140.53,10.2,13.98,,20.2
1618745159.1028364,0.5,3.06,3.78,140.53,10.12,13.98,,20.2
1618745159.1971967,0.5,3.06,3.78,140.53,10.12,13.94,,20.2
1618745159.293141,0.5,3.49,3.51,140.53,10.12,13.94,,20.2
1618745159.3883767,0.6,3.49,3.51,139.91,10.24,13.94,,20.2
1618745159.482395,0.6,3.49,3.51,139.91,10.24,13.94,,20.2
1618745159.5773654,0.6,3.49,3.99,139.91,10.24,13.84,,20.2
1618745159.6723628,0.6,3.49,3.99,139.91,10.24,13.84,,20.2
1618745159.768363,0.6,3.49,3.99,140.34,10.17,13.84,,20.2
1618745159.8783617,0.6,3.49,3.99,140.34,10.17,13.84,,20.2
1618745159.973353,0.6,3.95,3.99,140.34,10.17,13.84,,20.2
1618745160.0663884,0.6,3.95,3.74,138.76,10.25,13.84,,20.2
1618745160.1633563,0.7,3.95,3.74,138.76,10.25,13.84,,20.2
1618745160.2613637,0.7,2.86,3.74,138.76,10.25,13.72,,20.2
1618745160.3713675,0.7,2.86,4.2,139.65,10.25,13.72,,20.2
1618745160.4663637,0.3,2.86,4.2,139.65,10.16,13.72,,20.2
1618745160.561391,0.3,2.86,4.2,139.65,10.16,13.73,,20.2
1618745160.6553853,0.3,3.69,4.45,139.65,10.16,13.73,,20.2
1618745160.7513497,0.5,3.69,4.45,140.2,10.12,13.73,,20.2
1618745160.8473537,0.5,3.69,4.45,140.2,10.12,13.8,,20.2
1618745160.9403596,0.5,3.69,4.45,140.2,10.12,13.8,,20.2
1618745161.0353644,0.5,3.53,3.95,140.2,10.12,13.8,,20.2
1618745161.1303692,0.5,3.53,3.95,139.22,10.17,13.8,,20.2
1618745161.2233927,0.5,3.53,3.95,139.22,10.17,13.8,,20.2
1618745161.3193567,0.5,3.75,3.95,139.22,10.17,13.84,,20.2
1618745161.4153588,0.5,3.75,4.43,138.94,10.17,13.84,,20.2
1618745161.5113583,0.6,3.75,4.43,138.94,10.17,13.84,,20.2
1618745161.6053905,0.6,3.53,4.43,138.94,10.17,13.84,,20.2
1618745161.6993847,0.6,3.53,4.18,139.09,10.17,13.84,,20.2
1618745161.7953901,0.6,3.53,4.18,139.09,10.17,13.84,,20.2
1618745161.8903627,0.6,3.53,4.18,139.09,10.29,13.84,,20.2
1618745161.985353,0.6,3.29,4.18,139.09,10.29,13.83,,20.2
1618745162.080394,0.6,3.29,4.16,139.94,10.29,13.83,,20.2
1618745162.1763566,0.5,3.29,4.16,139.94,10.25,13.83,,20.2
1618745162.270367,0.5,3.29,4.16,139.94,10.25,13.84,,20.2
1618745162.3663523,0.5,3.54,4.01,139.94,10.25,13.84,,20.2
1618745162.4603508,0.7,3.54,4.01,139.34,10.2,13.84,,20.2
1618745162.5563533,0.7,3.54,4.01,139.34,10.2,13.85,,20.2
1618745162.651351,0.7,3.54,4.01,139.34,10.2,13.85,,20.2
1618745162.762355,0.7,3.51,3.98,139.34,10.2,13.85,,20.2
1618745162.8583503,0.7,3.51,3.98,138.62,10.2,13.85,,20.2
1618745162.9543557,0.5,3.51,3.98,138.62,10.2,13.85,,20.2
1618745163.0473907,0.5,3.76,3.98,138.62,10.2,13.88,,20.2
1618745163.1403592,0.5,3.76,4.16,139.24,10.09,13.88,,20.2
1618745163.2353902,0.6,3.76,4.16,139.24,10.09,13.88,,20.2
1618745163.3303502,0.6,3.76,4.16,139.24,10.09,13.89,,20.2
1618745163.4253528,0.6,3.76,3.55,138.09,10.09,13.89,,20.2
1618745163.520352,0.5,3.76,3.55,138.09,10.2,13.89,,20.2
1618745163.615357,0.5,3.76,3.55,138.09,10.2,13.85,,20.2
1618745163.7103508,0.5,3.76,3.55,138.09,10.2,13.85,,20.2
1618745163.8053534,0.5,3.76,3.99,137.99,10.2,13.85,,20.2
1618745163.9003525,0.5,3.76,3.99,137.99,10.24,13.85,,20.2
1618745163.9963505,0.5,3.76,3.99,137.99,10.24,13.84,,20.2
1618745164.0913513,0.5,3.31,4.23,137.99,10.24,13.84,,20.2
1618745164.1853528,0.5,3.31,4.23,137.87,10.2,13.84,,20.2
1618745164.2803493,0.5,3.31,4.23,137.87,10.2,13.84,,20.2
1618745164.3763497,0.5,3.73,4.23,137.87,10.2,13.84,,20.2
1618745164.4703512,0.5,3.73,4.2,137.3,10.2,13.84,,20.2
1618745164.5643494,0.6,3.73,4.2,137.3,10.2,13.84,,20.2
1618745164.6593578,0.6,3.73,4.2,137.3,10.2,13.84,,20.2
1618745164.753382,0.6,3.48,4.2,137.3,10.2,13.88,,20.2
1618745164.849371,0.6,3.48,4.69,135.86,10.2,13.88,,20.2
1618745164.944375,0.5,3.48,4.69,135.86,10.25,13.88,,20.2
1618745165.0383542,0.5,3.48,4.69,135.86,10.25,13.93,,20.2
1618745165.1333644,0.5,3.34,4.69,137.44,10.25,13.93,,20.2
1618745165.2283626,0.5,3.34,4.69,137.44,10.24,13.93,,20.2
1618745165.3223643,0.5,3.34,4.69,137.44,10.24,14.04,,20.2
1618745165.4173598,0.5,3.57,3.99,137.44,10.24,14.04,,20.2
1618745165.5123546,0.5,3.57,3.99,137.44,10.24,14.04,,20.2
1618745165.6083524,0.5,3.57,3.99,137.14,10.2,14.04,,20.2
1618745165.7013555,0.5,3.57,3.99,137.14,10.2,14.04,,20.2
1618745165.796352,0.5,3.98,3.0,137.14,10.2,14.1,,20.2
1618745165.891622,0.5,3.98,3.0,137.23,10.17,14.1,,20.2
1618745165.9876149,0.6,3.98,3.0,137.23,10.17,14.1,,20.2
1618745166.0836523,0.6,3.31,3.0,137.23,10.17,14.12,,20.2
1618745166.1786187,0.6,3.31,3.31,136.22,10.17,14.12,,20.2
1618745166.273615,0.6,3.31,3.31,136.22,10.27,14.12,,20.2
1618745166.368617,0.6,3.31,3.31,136.22,10.27,14.12,,20.2
1618745166.464612,0.6,3.31,3.31,136.82,10.27,14.12,,20.2
1618745166.559618,0.6,3.31,3.31,136.82,10.27,14.12,,20.2
1618745166.654613,0.6,3.31,3.31,136.82,10.28,14.12,,20.2
1618745166.7636163,0.6,3.31,3.31,136.82,10.28,14.05,,20.2
1618745166.8586159,0.6,3.55,3.74,136.82,10.28,14.05,,20.2
1618745166.9526777,0.5,3.55,3.74,135.08,10.24,14.05,,20.2
1618745167.0476487,0.5,3.55,3.74,135.08,10.24,14.05,,20.2
1618745167.1436129,0.5,3.5,3.74,135.08,10.24,13.95,,20.2
1618745167.239618,0.5,3.5,3.74,135.57,10.13,13.95,,20.2
1618745167.334616,0.6,3.5,3.74,135.57,10.13,13.95,,20.2
1618745167.4306195,0.6,3.31,3.74,135.57,10.13,13.91,,20.2
1618745167.5256124,0.6,3.31,3.74,135.57,10.13,13.91,,20.2
1618745167.6236176,0.6,3.31,4.2,135.48,10.13,13.91,,20.2
1618745167.7346122,0.4,3.31,4.2,135.48,10.17,13.91,,20.2
1618745167.8446126,0.4,3.29,4.2,135.48,10.17,13.91,,20.2
1618745167.9216123,0.4,3.29,3.55,134.12,10.17,13.91,,20.2
1618745168.015622,0.5,3.29,3.55,134.12,10.27,13.91,,20.2
1618745168.1106286,0.5,3.29,3.55,134.12,10.27,13.95,,20.2
1618745168.2046483,0.5,3.54,3.99,134.12,10.27,13.95,,20.2
1618745168.28361,0.5,3.54,3.99,135.61,10.24,13.95,,20.2
1618745168.3806121,0.5,3.54,3.99,135.61,10.24,13.95,,20.2
1618745168.474617,0.5,3.54,3.96,135.61,10.24,13.95,,20.2
1618745168.570616,0.5,3.54,3.96,135.61,10.24,13.95,,20.2
1618745168.6666517,0.5,3.54,3.96,134.61,10.13,13.95,,20.2
1618745168.7626176,0.6,3.54,3.96,134.61,10.13,13.95,,20.2
1618745168.8546507,0.6,3.04,3.96,134.61,10.13,13.9,,20.2
1618745168.931612,0.6,3.04,3.98,134.62,10.13,13.9,,20.2
1618745169.0266209,0.5,3.04,3.98,134.62,10.21,13.9,,20.2
1618745169.122618,0.5,3.04,3.98,134.62,10.21,13.81,,20.2
1618745169.2176192,0.5,3.53,4.42,134.62,10.21,13.81,,20.2
1618745169.2976134,0.5,3.53,4.42,134.62,10.21,13.81,,20.2
1618745169.3906128,0.6,3.53,4.42,134.62,10.21,13.81,,20.2
1618745169.500613,0.6,3.53,4.42,134.62,10.21,13.76,,20.2
1618745169.5946248,0.6,3.08,3.96,134.62,10.21,13.76,,20.2
1618745169.6886175,0.5,3.08,3.96,135.02,10.2,13.76,,20.2
1618745169.7826135,0.5,3.08,3.96,135.02,10.2,13.86,,20.2
1618745169.8776183,0.5,3.53,4.23,135.02,10.2,13.86,,20.2
1618745169.9698627,0.5,3.53,4.23,135.02,10.2,13.86,,20.2
1618745170.0538547,0.5,3.53,4.23,128.01,10.24,13.86,,20.2
1618745170.1648512,0.6,3.53,4.23,128.01,10.24,13.86,,20.2
1618745170.2608542,0.6,3.72,4.23,128.01,10.24,13.93,,20.2
1618745170.355859,0.6,3.72,4.23,128.86,10.24,13.93,,20.2
1618745170.451889,0.6,3.72,4.23,128.86,10.24,13.93,,20.2
1618745170.5478895,0.6,3.73,4.23,128.86,10.24,14.03,,20.2
1618745170.6438785,0.6,3.73,4.18,128.6,10.24,14.03,,20.2
1618745170.7388585,0.5,3.73,4.18,128.6,10.17,14.03,,20.2
1618745170.832857,0.5,3.31,4.18,128.6,10.17,14.02,,20.2
1618745170.92886,0.5,3.31,3.54,128.16,10.17,14.02,,20.2
1618745171.0238492,0.5,3.31,3.54,128.16,10.12,14.02,,20.2
1618745171.1308596,0.5,3.31,3.54,128.16,10.12,13.97,,20.2
1618745171.2238605,0.5,3.31,3.54,128.16,10.12,13.97,,20.2
1618745171.319846,0.5,3.32,3.74,128.16,10.12,13.97,,20.2
1618745171.4148686,0.5,3.32,3.74,128.5,10.16,13.97,,20.2
1618745171.5098538,0.5,3.32,3.74,128.5,10.16,13.97,,20.2
1618745171.605846,0.5,3.7,3.73,128.5,10.16,13.93,,20.2
1618745171.6998591,0.5,3.7,3.73,128.14,10.28,13.93,,20.2
1618745171.796851,0.5,3.7,3.73,128.14,10.28,13.93,,20.2
1618745171.8918478,0.5,3.53,3.73,128.14,10.28,13.88,,20.2
1618745172.0028567,0.5,3.53,4.21,129.37,10.28,13.88,,20.2
1618745172.0988488,0.5,3.53,4.21,129.37,10.16,13.88,,20.2
1618745172.194849,0.5,3.94,4.21,129.37,10.16,13.86,,20.2
1618745172.2898493,0.5,3.94,4.21,129.37,10.16,13.86,,20.2
1618745172.38585,0.5,3.94,3.55,127.93,10.16,13.86,,20.2
1618745172.482858,0.5,3.94,3.55,127.93,10.24,13.86,,20.2
1618745172.5928497,0.5,3.94,3.55,127.93,10.24,13.82,,20.2
1618745172.6878462,0.5,3.29,3.55,120.91,10.24,13.82,,20.2
1618745172.7838461,0.7,3.29,3.55,120.91,10.2,13.82,,20.2
1618745172.8788528,0.7,3.29,3.55,120.91,10.2,13.8,,20.2
1618745172.9738455,0.7,3.73,3.76,120.91,10.2,13.8,,20.2
1618745173.0688505,0.7,3.73,3.76,123.43,10.29,13.8,,20.2
1618745173.1648586,0.5,3.73,3.76,123.43,10.29,13.8,,20.2
1618745173.2598495,0.5,3.33,3.95,123.43,10.29,13.8,,20.2
1618745173.3698509,0.5,3.33,3.95,123.86,10.2,13.8,,20.2
1618745173.4638577,0.5,3.33,3.95,123.86,10.2,13.8,,20.2
1618745173.5588598,0.5,3.33,3.95,123.86,10.2,13.8,,20.2
1618745173.6538498,0.5,3.53,3.95,123.86,10.2,13.76,,20.2
1618745173.748856,0.5,3.53,3.71,123.3,10.2,13.76,,20.2
1618745173.8448832,0.5,3.53,3.71,123.3,10.13,13.76,,20.2
1618745173.9538484,0.5,3.53,3.71,123.3,10.13,13.74,,20.2
1618745174.0488496,0.5,3.31,3.56,123.94,10.13,13.74,,20.2
1618745174.1458697,0.5,3.31,3.56,123.94,10.24,13.74,,20.2
1618745174.2408476,0.5,3.31,3.56,123.94,10.24,13.74,,20.2
1618745174.3368495,0.5,2.87,4.65,123.94,10.24,13.74,,20.2
1618745174.4328496,0.5,2.87,4.65,123.11,10.16,13.74,,20.2
1618745174.526856,0.6,2.87,4.65,123.11,10.16,13.74,,20.2
1618745174.6218514,0.6,3.53,4.65,123.11,10.16,13.67,,20.2
1618745174.7178805,0.6,3.53,4.65,123.11,10.16,13.67,,20.2
1618745174.8139024,0.6,3.53,3.77,123.11,10.16,13.67,,20.2
1618745174.9088526,0.5,3.53,3.77,123.11,10.16,13.67,,20.2
1618745175.0038476,0.5,4.15,3.77,123.11,10.16,13.65,,20.2
1618745175.098853,0.5,4.15,3.49,125.82,10.16,13.65,,20.2
1618745175.1948564,0.5,4.15,3.49,125.82,10.16,13.65,,20.2
1618745175.2898474,0.5,4.15,3.49,125.82,10.16,13.66,,20.2
1618745175.383873,0.5,4.19,3.73,121.57,10.16,13.66,,20.2
1618745175.4798937,0.6,4.19,3.73,121.57,10.2,13.66,,20.2
1618745175.5748498,0.6,4.19,3.73,121.57,10.2,13.0,,20.2
1618745175.669884,0.6,4.19,3.73,121.57,10.2,13.0,,20.2
1618745175.7648475,0.6,3.45,4.21,121.57,10.2,13.0,,20.2
1618745175.8598514,0.4,3.45,4.21,121.71,10.16,13.0,,20.2
1618745175.9548593,0.4,3.45,4.21,121.71,10.16,13.0,,20.2
1618745176.0498528,0.4,3.28,3.98,121.71,10.16,13.72,,20.2
1618745176.145849,0.4,3.28,3.98,1.0,10.16,13.72,,20.2
1618745176.2418506,0.6,3.28,3.98,1.0,10.16,13.72,,20.2
1618745176.33585,0.6,3.31,3.98,1.0,10.16,13.76,,20.2
1618745176.4338636,0.6,3.31,4.32,120.76,10.2,13.76,,20.2
1618745176.542848,0.5,3.31,4.32,120.76,10.2,13.76,,20.2
1618745176.6358588,0.5,4.2,4.32,120.76,10.2,13.8,,20.2
1618745176.7348576,0.5,4.2,4.32,120.76,10.2,13.8,,20.2
1618745176.8298528,0.5,4.2,3.76,119.77,10.2,13.8,,20.2
1618745176.9218473,0.5,4.2,3.76,119.77,10.12,13.8,,20.2
1618745177.015851,0.5,4.2,3.76,119.77,10.12,13.81,,20.2
1618745177.1108494,0.5,3.51,4.01,123.01,10.12,13.81,,20.2
1618745177.2038517,0.5,3.51,4.01,123.01,10.08,13.81,,20.2
1618745177.2998474,0.5,3.51,4.01,123.01,10.08,13.81,,20.2
1618745177.3958519,0.5,3.54,3.51,123.01,10.08,13.81,,20.2
1618745177.4918466,0.5,3.54,3.51,127.13,10.44,13.81,,20.2
1618745177.5878503,0.5,3.54,3.51,127.13,10.44,13.76,,20.2
1618745177.683858,0.5,3.54,3.51,127.13,10.44,13.76,,20.2
1618745177.7808702,0.5,3.51,3.73,127.13,10.44,13.76,,20.2
1618745177.8758504,0.5,3.51,3.73,121.84,10.2,13.76,,20.2
1618745177.9708467,0.6,3.51,3.73,121.84,10.2,13.76,,20.2
1618745178.06585,0.6,3.76,3.73,121.84,10.2,13.7,,20.2
1618745178.1628485,0.6,3.76,3.3,127.15,10.33,13.7,,20.2
1618745178.259849,0.7,3.76,3.3,127.15,10.33,13.7,,20.2
1618745178.3528569,0.7,3.56,3.3,127.15,10.33,13.69,,20.2
1618745178.450869,0.7,3.56,3.95,119.04,10.33,13.69,,20.2
1618745178.5608454,0.7,3.56,3.95,119.04,10.2,13.69,,20.2
1618745178.6558464,0.7,3.56,3.95,119.04,10.2,13.7,,20.2
1618745178.749847,0.7,3.3,4.18,119.04,10.2,13.7,,20.2
1618745178.8468497,0.7,3.3,4.18,119.04,10.2,13.7,,20.2
1618745178.9428463,0.5,3.3,4.18,125.89,10.28,13.7,,20.2
1618745179.036851,0.5,3.3,4.18,125.89,10.28,13.7,,20.2
1618745179.133878,0.5,3.1,3.74,125.89,10.28,13.78,,20.2
1618745179.244848,0.5,3.1,3.74,122.71,10.28,13.78,,20.2
1618745179.337858,0.6,3.1,3.74,122.71,10.28,13.78,,20.2
1618745179.4338515,0.6,3.31,3.74,122.71,10.28,13.84,,20.2
1618745179.5318563,0.6,3.31,3.96,117.84,10.28,13.84,,20.2
1618745179.6418474,0.5,3.31,3.96,117.84,10.24,13.84,,20.2
1618745179.7378547,0.5,3.53,3.96,117.84,10.24,13.9,,20.2
1618745179.8328521,0.5,3.53,3.73,115.98,10.24,13.9,,20.2
1618745179.9298494,0.5,3.53,3.73,115.98,10.24,13.9,,20.2
1618745180.025852,0.5,3.53,3.73,115.98,10.24,13.86,,20.2
1618745180.1208484,0.5,3.53,3.73,115.98,10.24,13.86,,20.2
1618745180.2268503,0.5,3.95,4.05,115.98,10.24,13.86,,20.2
1618745180.3138497,0.5,3.95,4.05,117.82,10.24,13.86,,20.2
1618745180.405846,0.5,3.95,4.05,117.82,10.24,13.94,,20.2
1618745180.502848,0.5,3.29,3.96,117.82,10.24,13.94,,20.2
1618745180.5988562,0.6,3.29,3.96,120.14,10.24,13.94,,20.2
1618745180.6938486,0.6,3.29,3.96,120.14,10.24,13.94,,20.2
1618745180.7928128,0.6,3.29,4.43,120.14,10.24,13.96,,20.2
1618745180.9010367,0.6,3.29,4.43,114.71,10.24,13.96,,20.2
1618745181.0074565,0.5,3.29,4.43,114.71,10.24,13.96,,20.2
1618745181.1007693,0.5,3.82,4.43,114.71,10.24,13.93,,20.2
1618745181.2098055,0.5,3.82,3.98,115.63,10.24,13.93,,20.2
1618745181.3047695,0.5,3.82,3.98,115.63,10.24,13.93,,20.2
1618745181.3997803,0.5,3.82,3.98,115.63,10.24,13.93,,20.2
1618745181.4937716,0.5,3.73,3.98,115.63,10.24,13.9,,20.2
1618745181.588774,0.5,3.73,3.73,114.53,10.24,13.9,,20.2
1618745181.6837687,0.6,3.73,3.73,114.53,10.12,13.9,,20.2
1618745181.7787771,0.6,3.73,3.73,114.53,10.12,13.88,,20.2
1618745181.8737807,0.6,3.31,4.16,114.68,10.12,13.88,,20.2
1618745181.9677823,0.5,3.31,4.16,114.68,10.25,13.88,,20.2
1618745182.06377,0.5,3.31,4.16,114.68,10.25,13.85,,20.2
1618745182.1587667,0.5,3.3,3.77,114.68,10.25,13.85,,20.2
1618745182.2537756,0.5,3.3,3.77,114.68,10.25,13.85,,20.2
1618745182.348782,0.5,3.3,3.77,112.78,10.16,13.85,,20.2
1618745182.445769,0.5,3.3,3.77,112.78,10.16,13.0,,20.2
1618745182.5397916,0.5,3.95,3.54,112.78,10.16,13.0,,20.2
1618745182.6337717,0.5,3.95,3.54,113.62,10.17,13.0,,20.2
1618745182.728773,0.6,3.95,3.54,113.62,10.17,13.0,,20.2
1618745182.8247786,0.6,3.06,3.54,113.62,10.17,13.78,,20.2
1618745182.9187803,0.6,3.06,4.18,113.62,10.17,13.78,,20.2
1618745183.028772,0.7,3.06,4.18,113.62,10.17,13.78,,20.2
1618745183.1247795,0.7,3.31,4.18,113.62,10.17,13.81,,20.2
1618745183.2207696,0.7,3.31,4.2,112.3,10.17,13.81,,20.2
1618745183.3147702,0.7,3.31,4.2,112.3,10.17,13.81,,20.2
1618745183.4107695,0.5,3.31,4.2,112.3,10.16,13.81,,20.2
1618745183.5047696,0.5,3.31,4.2,112.3,10.16,13.85,,20.2
1618745183.5998077,0.5,3.32,4.2,112.3,10.16,13.85,,20.2
1618745183.6957748,0.6,3.32,4.2,111.86,10.13,13.85,,20.2
1618745183.791774,0.6,3.32,4.2,111.86,10.13,13.85,,20.2
1618745183.885782,0.6,3.55,4.23,111.86,10.13,13.85,,20.2
1618745183.9787717,0.6,3.55,4.23,110.93,10.25,13.85,,20.2
1618745184.0747683,0.6,3.55,4.23,110.93,10.25,13.85,,20.2
1618745184.1697793,0.6,3.55,4.23,110.93,10.25,13.85,,20.2
1618745184.2647846,0.6,3.95,4.23,110.93,10.25,13.83,,20.2
1618745184.360829,0.6,3.95,3.96,112.15,10.24,13.83,,20.2
1618745184.456773,0.6,3.95,3.96,112.15,10.24,13.83,,20.2
1618745184.5507832,0.6,3.28,3.96,112.15,10.24,13.76,,20.2
1618745184.6457727,0.6,3.28,3.9,111.28,10.16,13.76,,20.2
1618745184.7417717,0.5,3.28,3.9,111.28,10.16,13.76,,20.2
1618745184.8487704,0.5,3.28,3.9,111.28,10.16,13.68,,20.2
1618745184.9467685,0.5,3.31,3.74,110.9,10.16,13.68,,20.2
1618745185.0737689,0.6,3.31,3.74,110.9,10.2,13.68,,20.2
1618745185.1718006,0.6,3.31,3.74,110.9,10.2,13.61,,20.2
1618745185.2807753,0.6,3.27,3.78,110.9,10.2,13.61,,20.2
1618745185.3877687,0.7,3.27,3.78,111.19,10.16,13.61,,20.2
1618745185.497776,0.7,3.27,3.78,111.19,10.16,13.61,,20.2
1618745185.6087677,0.7,3.75,3.78,111.19,10.16,13.61,,20.2
1618745185.7027695,0.7,3.75,3.78,109.47,10.12,13.61,,20.2
1618745185.797773,0.5,3.75,3.78,109.47,10.12,13.61,,20.2
1618745185.8977726,0.5,3.54,3.78,109.47,10.12,13.64,,20.2
1618745185.9957678,0.5,3.54,3.78,109.16,10.24,13.64,,20.2
1618745186.080769,0.5,3.54,3.78,109.16,10.24,13.64,,20.2
1618745186.213774,0.5,3.54,3.78,109.16,10.24,13.64,,20.2
1618745186.3077729,0.5,3.72,3.78,109.16,10.24,13.67,,20.2
1618745186.4007685,0.5,3.72,3.74,106.04,10.24,13.67,,20.2
1618745186.4977694,0.5,3.72,3.74,106.04,10.2,13.67,,20.2
1618745186.591773,0.5,3.72,3.74,106.04,10.2,13.71,,20.2
1618745186.6867735,0.5,3.72,3.96,106.62,10.2,13.71,,20.2
1618745186.7807767,0.6,3.72,3.96,106.62,10.2,13.71,,20.2
1618745186.8897693,0.6,3.72,3.96,106.62,10.2,13.72,,20.2
1618745186.9877677,0.6,3.69,4.15,106.62,10.2,13.72,,20.2
1618745187.0807805,0.5,3.69,4.15,107.55,10.2,13.72,,20.2
1618745187.1767716,0.5,3.69,4.15,107.55,10.2,13.71,,20.2
1618745187.2727716,0.5,3.54,3.73,107.55,10.2,13.71,,20.2
1618745187.3677697,0.5,3.54,3.73,105.93,10.28,13.71,,20.2
1618745187.4637702,0.5,3.54,3.73,105.93,10.28,13.71,,20.2
1618745187.5727677,0.5,3.54,3.73,105.93,10.28,13.71,,20.2
1618745187.666772,0.5,3.73,3.73,105.93,10.28,13.7,,20.2
1618745187.7617745,0.5,3.73,3.76,105.08,10.24,13.7,,20.2
1618745187.855777,0.6,3.73,3.76,105.08,10.24,13.7,,20.2
1618745187.9507675,0.6,3.97,3.76,105.08,10.24,13.7,,20.2
1618745188.0618584,0.6,3.97,4.02,105.15,10.24,13.7,,20.2
1618745188.156785,0.5,3.97,4.02,105.15,10.2,13.7,,20.2
1618745188.2527745,0.5,3.97,4.02,105.15,10.2,13.78,,20.2
1618745188.3487687,0.5,3.29,3.98,103.75,10.2,13.78,,20.2
1618745188.4427714,0.5,3.29,3.98,103.75,10.16,13.78,,20.2
1618745188.536773,0.5,3.29,3.98,103.75,10.16,13.85,,20.2
1618745188.632771,0.5,3.29,3.98,103.75,10.16,13.85,,20.2
1618745188.7287667,0.5,3.08,3.98,103.75,10.16,13.85,,20.2
1618745188.8247907,0.5,3.08,3.98,104.19,10.24,13.85,,20.2
1618745188.9197698,0.5,3.08,3.98,104.19,10.24,13.85,,20.2
1618745189.0167716,0.5,3.53,3.98,104.19,10.24,13.9,,20.2
1618745189.0957725,0.5,3.53,3.99,102.98,10.24,13.9,,20.2
1618745189.1947706,0.5,3.53,3.99,102.98,10.24,13.9,,20.2
1618745189.302769,0.5,3.31,3.99,102.98,10.24,13.91,,20.2
1618745189.3957691,0.5,3.31,3.96,102.12,10.24,13.91,,20.2
1618745189.5067916,0.5,3.31,3.96,102.12,10.27,13.91,,20.2
1618745189.6027713,0.5,3.31,3.96,102.12,10.27,13.83,,20.2
1618745189.6987672,0.5,3.53,3.7,101.02,10.27,13.83,,20.2
1618745189.79479,0.5,3.53,3.7,101.02,10.27,13.83,,20.2
1618745189.9027693,0.5,3.53,3.7,101.02,10.08,13.83,,20.2
1618745189.9987726,0.5,3.53,3.7,101.02,10.08,13.74,,20.2
1618745190.108769,0.5,3.31,3.74,101.02,10.08,13.74,,20.2
1618745190.2037673,0.5,3.31,3.74,101.79,10.24,13.74,,20.2
1618745190.2977684,0.5,3.31,3.74,101.79,10.24,13.74,,20.2
1618745190.4067721,0.5,3.53,3.78,101.79,10.24,1.0,,20.2
1618745190.5027695,0.5,3.53,3.78,99.8,10.12,1.0,,20.2
1618745190.5987675,0.4,3.53,3.78,99.8,10.12,1.0,,20.2
1618745190.694774,0.4,3.57,3.78,99.8,10.12,13.6,,20.2
1618745190.7887692,0.4,3.57,4.13,99.8,10.12,13.6,,20.2
1618745190.8857806,0.6,3.57,4.13,99.8,10.12,13.6,,20.2
1618745190.9797704,0.6,3.57,4.13,99.8,10.12,13.58,,20.2
1618745191.076771,0.6,2.67,3.76,98.55,10.12,13.58,,20.2
1618745191.1717753,0.5,2.67,3.76,98.55,10.2,13.58,,20.2
1618745191.2677672,0.5,2.67,3.76,98.55,10.2,13.58,,20.2
1618745191.3637693,0.5,2.67,3.76,98.55,10.2,13.58,,20.2
1618745191.4587798,0.5,3.54,3.76,98.55,10.2,13.58,,20.2
1618745191.5547671,0.5,3.54,3.76,98.41,10.13,13.58,,20.2
1618745191.65077,0.5,3.54,3.76,98.41,10.13,13.58,,20.2
1618745191.7467675,0.5,3.53,3.55,98.41,10.13,13.59,,20.2
1618745191.840771,0.5,3.53,3.55,97.9,10.12,13.59,,20.2
1618745191.9357681,0.6,3.53,3.55,97.9,10.12,13.59,,20.2
1618745192.0317707,0.6,2.43,3.55,97.9,10.12,13.6,,20.2
1618745192.12677,0.6,2.43,3.7,99.24,10.12,13.6,,20.2
1618745192.2227764,0.6,2.43,3.7,99.24,10.12,13.6,,20.2
1618745192.3177733,0.5,2.43,3.7,99.24,10.12,13.6,,20.2
1618745192.4107738,0.5,2.43,3.7,99.24,10.12,13.6,,20.2
1618745192.5057702,0.5,3.53,3.9,98.5,10.12,13.6,,20.2
1618745192.600773,0.5,3.53,3.9,98.5,10.24,13.6,,20.2
1618745192.6957715,0.5,3.53,3.9,98.5,10.24,13.6,,20.2
1618745192.803777,0.5,3.75,3.96,98.5,10.24,13.6,,20.2
1618745192.8987923,0.3,3.75,3.96,100.23,10.28,13.6,,20.2
1618745192.995771,0.3,3.75,3.96,100.23,10.28,13.6,,20.2
1618745193.1077702,0.3,3.1,3.55,100.23,10.28,13.6,,20.2
1618745193.2007732,0.3,3.1,3.55,96.25,10.2,13.6,,20.2
1618745193.2957685,0.5,3.1,3.55,96.25,10.2,13.6,,20.2
1618745193.3907716,0.5,3.1,3.55,96.25,10.2,13.6,,20.2
1618745193.4867704,0.5,3.76,3.55,96.25,10.2,13.6,,20.2
1618745193.58077,0.5,3.76,3.96,95.17,10.2,13.6,,20.2
1618745193.6767719,0.5,3.76,3.96,95.17,10.2,13.6,,20.2
1618745193.7707758,0.5,3.05,3.96,95.17,10.2,13.6,,20.2
1618745193.8657777,0.5,3.05,3.49,93.96,10.2,13.6,,20.2
1618745193.9607704,0.5,3.05,3.49,93.96,10.32,13.6,,20.2
1618745194.0557692,0.5,3.05,3.49,93.96,10.32,13.6,,20.2
1618745194.1507742,0.5,3.53,3.74,95.83,10.32,13.6,,20.2
1618745194.24577,0.6,3.53,3.74,95.83,10.21,13.6,,20.2
1618745194.3417718,0.6,3.53,3.74,95.83,10.21,13.6,,20.2
1618745194.4367716,0.6,3.53,3.74,95.83,10.21,13.6,,20.2
1618745194.5327673,0.6,3.29,3.98,95.83,10.21,13.6,,20.2
1618745194.6267703,0.6,3.29,3.98,95.83,10.21,13.6,,20.2
1618745194.7217693,0.5,3.29,3.98,95.83,10.21,13.6,,20.2
1618745194.8167725,0.5,3.33,3.98,95.83,10.21,13.6,,20.2
1618745194.911776,0.5,3.33,3.76,93.86,10.2,13.6,,20.2
1618745195.0047722,0.5,3.33,3.76,93.86,10.2,13.6,,20.2
1618745195.0997717,0.5,3.54,3.76,93.86,10.2,13.6,,20.2
1618745195.1937761,0.5,3.54,3.96,93.1,10.2,13.6,,20.2
1618745195.2937686,0.5,3.54,3.96,93.1,10.2,13.6,,20.2
1618745195.3987677,0.6,3.54,3.96,93.1,10.24,13.6,,20.2
1618745195.4947684,0.6,3.54,3.96,93.1,10.24,13.7,,20.2
1618745195.5887754,0.6,3.5,3.77,9.0,10.24,13.7,,20.2
1618745195.6828,0.7,3.5,3.77,9.0,10.24,13.7,,20.2
1618745195.7767699,0.7,3.5,3.77,9.0,10.24,13.79,,20.2
1618745195.8747938,0.7,3.97,3.78,9.0,10.24,13.79,,20.2
1618745195.968769,0.5,3.97,3.78,90.22,10.2,13.79,,20.2
1618745196.06477,0.5,3.97,3.78,90.22,10.2,13.79,,20.2
1618745196.158769,0.5,3.97,3.52,90.22,10.2,13.84,,20.2
1618745196.277773,0.5,3.97,3.52,90.22,10.2,13.84,,20.2
1618745196.3637695,0.5,3.97,3.52,91.99,10.28,13.84,,20.2
1618745196.4647732,0.5,3.97,3.52,91.99,10.28,13.84,,20.2
1618745196.5547695,0.5,3.73,3.52,91.99,10.28,13.9,,20.2
1618745196.649768,0.5,3.73,3.74,91.05,10.24,13.9,,20.2
1618745196.745777,0.6,3.73,3.74,91.05,10.24,13.9,,20.2
1618745196.8407693,0.6,3.75,3.74,91.05,10.24,13.83,,20.2
1618745196.9357684,0.6,3.75,3.54,92.57,10.24,13.83,,20.2
1618745197.0307677,0.4,3.75,3.54,92.57,10.24,13.83,,20.2
1618745197.1257734,0.4,3.75,3.54,92.57,10.24,13.71,,20.2
1618745197.2207732,0.4,3.75,3.54,92.57,10.24,13.71,,20.2
1618745197.3157704,0.4,3.78,3.74,90.3,10.24,13.71,,20.2
1618745197.4107711,0.5,3.78,3.74,90.3,10.24,13.71,,20.2
1618745197.5078168,0.5,3.78,3.74,90.3,10.24,13.64,,20.2
1618745197.5997727,0.5,3.78,4.21,90.3,10.24,13.64,,20.2
1618745197.6957748,0.6,3.78,4.21,88.81,10.16,13.64,,20.2
1618745197.7897742,0.6,3.78,4.21,88.81,10.16,13.64,,20.2
1618745197.8838093,0.6,3.09,3.99,88.81,10.16,13.57,,20.2
1618745197.9797883,0.6,3.09,3.99,87.19,10.16,13.57,,20.2
1618745198.0747695,0.6,3.09,3.99,87.19,10.16,13.57,,20.2
1618745198.1847713,0.6,3.09,3.99,87.19,10.16,13.57,,20.2
1618745198.2797737,0.6,3.09,3.99,87.19,10.16,13.56,,20.2
1618745198.3757708,0.6,3.09,3.98,87.65,10.16,13.56,,20.2
1618745198.4717705,0.5,3.09,3.98,87.65,10.24,13.56,,20.2
1618745198.5657752,0.5,3.53,3.98,87.65,10.24,13.59,,20.2
1618745198.6607683,0.5,3.53,3.98,86.98,10.24,13.59,,20.2
1618745198.7537742,0.5,3.53,3.98,86.98,10.24,13.59,,20.2
1618745198.84877,0.5,3.53,3.98,86.98,10.24,13.6,,20.2
1618745198.944769,0.5,3.32,3.78,86.98,10.24,13.6,,20.2
