timestamp,roll,pitch,yaw,pressure,oxygen,depth,2_roll,2_pitch,2_yaw,2_pressure,2_oxygen,2_depth
1617112205.664606,87,87,87,87,87,87,85,85,85,85,85,85
1617112205.7533414,88,88,88,88,88,88,86,86,86,86,86,86
1617112205.855101,89,89,89,89,89,89,87,87,87,87,87,87
1617112205.9487047,90,90,90,90,90,90,88,88,88,88,88,88
1617112206.0470202,91,91,91,91,91,91,89,89,89,89,89,89
1617112206.1505537,92,92,92,92,92,92,90,90,90,90,90,90
1617112206.2482963,93,93,93,93,93,93,91,91,91,91,91,91
1617112206.3440385,94,94,94,94,94,94,92,92,92,92,92,92
1617112206.4428341,95,95,95,95,95,95,93,93,93,93,93,93
1617112206.5295637,96,96,96,96,96,96,93,93,93,93,93,93
1617112206.6422615,97,97,97,97,97,97,94,94,94,94,94,94
1617112206.738204,98,98,98,98,98,98,95,95,95,95,95,95
1617112206.8419275,99,99,99,99,99,99,96,96,96,96,96,96
1617112207.0384033,100,100,100,100,100,100,98,98,98,98,98,98
1617112207.1336546,101,101,101,101,101,101,99,99,99,99,99,99
1617112207.2284303,102,102,102,102,102,102,100,100,100,100,100,100
1617112207.3221755,103,103,103,103,103,103,101,101,101,101,101,101
1617112207.4229057,104,104,104,104,104,104,102,102,102,102,102,102
1617112207.5356052,105,105,105,105,105,105,103,103,103,103,103,103
1617112207.6449857,106,106,106,106,106,106,104,104,104,104,104,104
1617112207.7441995,107,107,107,107,107,107,105,105,105,105,105,105
1617112207.847922,108,108,108,108,108,108,105,105,105,105,105,105
1617112207.9523153,109,109,109,109,109,109,106,106,106,106,106,106
1617112208.0520785,110,110,110,110,110,110,107,107,107,107,107,107
1617112208.1408455,111,111,111,111,111,111,108,108,108,108,108,108
1617112208.2370603,112,112,112,112,112,112,109,109,109,109,109,109
1617112208.3457692,113,113,113,113,113,113,110,110,110,110,110,110
1617112208.4495173,114,114,114,114,114,114,111,111,111,111,111,111
1617112208.5472586,115,115,115,115,115,115,112,112,112,112,112,112
1617112208.656799,116,116,116,116,116,116,113,113,113,113,113,113
1617112208.7621975,117,117,117,117,117,117,114,114,114,114,114,114
1617112208.853895,117,117,117,117,117,117,114,114,114,114,114,114
1617112208.943282,118,118,118,118,118,118,115,115,115,115,115,115
1617112209.056813,119,119,119,119,119,119,116,116,116,116,116,116
1617112209.1574206,120,120,120,120,120,120,117,117,117,117,117,117
1617112209.2781963,121,121,121,121,121,121,118,118,118,118,118,118
1617112209.3849387,122,122,122,122,122,122,119,119,119,119,119,119
1617112209.4926834,123,123,123,123,123,123,120,120,120,120,120,120
1617112209.5949244,124,124,124,124,124,124,121,121,121,121,121,121
1617112209.7076237,125,125,125,125,125,125,122,122,122,122,122,122
1617112209.8173318,126,126,126,126,126,126,123,123,123,123,123,123
1617112209.9220212,127,127,127,127,127,127,124,124,124,124,124,124
1617112210.0207787,128,128,128,128,128,128,125,125,125,125,125,125
1617112210.1264758,129,129,129,129,129,129,126,126,126,126,126,126
1617112210.2242136,129,129,129,129,129,129,126,126,126,126,126,126
1617112210.3344824,130,130,130,130,130,130,127,127,127,127,127,127
1617112210.4272628,131,131,131,131,131,131,128,128,128,128,128,128
1617112210.5179918,132,132,132,132,132,132,129,129,129,129,129,129
1617112210.6094027,133,133,133,133,133,133,130,130,130,130,130,130
1617112210.7236714,134,134,134,134,134,134,131,131,131,131,131,131
1617112210.8214111,135,135,135,135,135,135,132,132,132,132,132,132
1617112210.9261606,136,136,136,136,136,136,133,133,133,133,133,133
1617112211.033947,137,137,137,137,137,137,134,134,134,134,134,134
1617112211.1441808,138,138,138,138,138,138,135,135,135,135,135,135
1617112211.2349381,139,139,139,139,139,139,136,136,136,136,136,136
1617112211.340657,140,140,140,140,140,140,137,137,137,137,137,137
1617112211.440389,141,141,141,141,141,141,138,138,138,138,138,138
1617112211.555082,142,142,142,142,142,142,139,139,139,139,139,139
1617112211.6498587,143,143,143,143,143,143,140,140,140,140,140,140
1617112211.7525544,144,144,144,144,144,144,141,141,141,141,141,141
1617112211.8503234,144,144,144,144,144,144,141,141,141,141,141,141
1617112211.9595723,145,145,145,145,145,145,142,142,142,142,142,142
1617112212.0683994,146,146,146,146,146,146,143,143,143,143,143,143
1617112212.1686661,147,147,147,147,147,147,144,144,144,144,144,144
1617112212.2728608,148,148,148,148,148,148,145,145,145,145,145,145
1617112212.368577,149,149,149,149,149,149,146,146,146,146,146,146
1617112212.4730217,150,150,150,150,150,150,147,147,147,147,147,147
1617112212.576483,151,151,151,151,151,151,148,148,148,148,148,148
1617112212.6748106,152,152,152,152,152,152,149,149,149,149,149,149
1617112212.777147,153,153,153,153,153,153,150,150,150,150,150,150
1617112212.8689024,154,154,154,154,154,154,151,151,151,151,151,151
1617112212.9627857,155,155,155,155,155,155,152,152,152,152,152,152
1617112213.063807,156,156,156,156,156,156,153,153,153,153,153,153
1617112213.171947,157,157,157,157,157,157,154,154,154,154,154,154
1617112213.273635,157,157,157,157,157,157,154,154,154,154,154,154
1617112213.3608851,158,158,158,158,158,158,155,155,155,155,155,155
1617112213.4825518,159,159,159,159,159,159,156,156,156,156,156,156
1617112213.6062608,160,160,160,160,160,160,157,157,157,157,157,157
1617112213.7059543,161,161,161,161,161,161,158,158,158,158,158,158
1617112213.805717,162,162,162,162,162,162,159,159,159,159,159,159
1617112213.8914595,163,163,163,163,163,163,160,160,160,160,160,160
1617112213.993216,164,164,164,164,164,164,161,161,161,161,161,161
1617112214.0869365,164,164,164,164,164,164,161,161,161,161,161,161
1617112214.1747007,165,165,165,165,165,165,162,162,162,162,162,162
1617112214.275484,166,166,166,166,166,166,163,163,163,163,163,163
1617112214.3702626,167,167,167,167,167,167,164,164,164,164,164,164
1617112214.4650645,168,168,168,168,168,168,165,165,165,165,165,165
1617112214.5719762,169,169,169,169,169,169,166,166,166,166,166,166
1617112214.6649525,170,170,170,170,170,170,167,167,167,167,167,167
1617112214.7716684,171,171,171,171,171,171,167,167,167,167,167,167
1617112214.88141,172,172,172,172,172,172,168,168,168,168,168,168
1617112214.981597,173,173,173,173,173,173,169,169,169,169,169,169
1617112215.0717766,173,173,173,173,173,173,170,170,170,170,170,170
1617112215.174504,174,174,174,174,174,174,171,171,171,171,171,171
1617112215.2822163,175,175,175,175,175,175,172,172,172,172,172,172
1617112215.3909254,176,176,176,176,176,176,173,173,173,173,173,173
1617112215.4857006,177,177,177,177,177,177,174,174,174,174,174,174
1617112215.5814905,178,178,178,178,178,178,175,175,175,175,175,175
1617112215.6871743,179,179,179,179,179,179,176,176,176,176,176,176
1617112215.785882,180,180,180,180,180,180,177,177,177,177,177,177
1617112215.8806293,181,181,181,181,181,181,177,177,177,177,177,177
1617112215.9873917,182,182,182,182,182,182,178,178,178,178,178,178
1617112216.0831347,183,183,183,183,183,183,179,179,179,179,179,179
1617112216.1768858,183,183,183,183,183,183,180,180,180,180,180,180
1617112216.2761273,184,184,184,184,184,184,181,181,181,181,181,181
1617112216.3788848,185,185,185,185,185,185,182,182,182,182,182,182
1617112216.4848332,186,186,186,186,186,186,183,183,183,183,183,183
1617112216.5782468,187,187,187,187,187,187,184,184,184,184,184,184
1617112216.6728337,188,188,188,188,188,188,185,185,185,185,185,185
1617112216.7837412,189,189,189,189,189,189,186,186,186,186,186,186
1617112216.8844733,190,190,190,190,190,190,187,187,187,187,187,187
1617112216.9750822,191,191,191,191,191,191,188,188,188,188,188,188
1617112217.0788379,192,192,192,192,192,192,189,189,189,189,189,189
1617112217.1876268,193,193,193,193,193,193,190,190,190,190,190,190
1617112217.3113284,194,194,194,194,194,194,191,191,191,191,191,191
1617112217.4355562,195,195,195,195,195,195,192,192,192,192,192,192
1617112217.556209,196,196,196,196,196,196,193,193,193,193,193,193
1617112217.6669424,197,197,197,197,197,197,194,194,194,194,194,194
1617112217.7726593,198,198,198,198,198,198,195,195,195,195,195,195
1617112217.8764796,199,199,199,199,199,199,196,196,196,196,196,196
1617112217.9881313,200,200,200,200,200,200,197,197,197,197,197,197
1617112218.0888622,201,201,201,201,201,201,198,198,198,198,198,198
1617112218.191661,200,200,200,200,200,200,199,199,199,199,199,199
1617112218.2836006,200,200,200,200,200,200,199,199,199,199,199,199
1617112218.3739538,199,199,199,199,199,199,200,200,200,200,200,200
1617112218.4876513,198,198,198,198,198,198,201,201,201,201,201,201
1617112218.5963607,197,197,197,197,197,197,200,200,200,200,200,200
1617112218.6896212,196,196,196,196,196,196,199,199,199,199,199,199
1617112218.7973464,195,195,195,195,195,195,198,198,198,198,198,198
1617112218.9075866,194,194,194,194,194,194,197,197,197,197,197,197
1617112219.0186682,193,193,193,193,193,193,196,196,196,196,196,196
1617112219.1223621,192,192,192,192,192,192,195,195,195,195,195,195
1617112219.2191036,191,191,191,191,191,191,194,194,194,194,194,194
1617112219.326855,190,190,190,190,190,190,193,193,193,193,193,193
1617112219.426375,189,189,189,189,189,189,192,192,192,192,192,192
1617112219.5201535,188,188,188,188,188,188,191,191,191,191,191,191
1617112219.6168664,188,188,188,188,188,188,191,191,191,191,191,191
1617112219.7335548,187,187,187,187,187,187,190,190,190,190,190,190
1617112219.8583486,186,186,186,186,186,186,189,189,189,189,189,189
1617112219.9530666,185,185,185,185,185,185,188,188,188,188,188,188
1617112220.0658333,184,184,184,184,184,184,187,187,187,187,187,187
1617112220.1665618,183,183,183,183,183,183,186,186,186,186,186,186
1617112220.273333,182,182,182,182,182,182,185,185,185,185,185,185
1617112220.3832257,181,181,181,181,181,181,184,184,184,184,184,184
1617112220.4914758,180,180,180,180,180,180,183,183,183,183,183,183
1617112220.5971608,179,179,179,179,179,179,182,182,182,182,182,182
1617112220.689913,178,178,178,178,178,178,181,181,181,181,181,181
1617112220.8006167,177,177,177,177,177,177,180,180,180,180,180,180
1617112220.9126217,176,176,176,176,176,176,179,179,179,179,179,179
1617112221.006371,175,175,175,175,175,175,178,178,178,178,178,178
1617112221.1041393,174,174,174,174,174,174,177,177,177,177,177,177
1617112221.1978898,173,173,173,173,173,173,176,176,176,176,176,176
1617112221.3006022,172,172,172,172,172,172,175,175,175,175,175,175
1617112221.397325,171,171,171,171,171,171,174,174,174,174,174,174
1617112221.5020387,170,170,170,170,170,170,173,173,173,173,173,173
1617112221.6020286,169,169,169,169,169,169,172,172,172,172,172,172
1617112221.6954267,168,168,168,168,168,168,171,171,171,171,171,171
1617112221.7976177,168,168,168,168,168,168,171,171,171,171,171,171
1617112221.9062881,167,167,167,167,167,167,170,170,170,170,170,170
1617112222.0120096,166,166,166,166,166,166,169,169,169,169,169,169
1617112222.1066666,165,165,165,165,165,165,168,168,168,168,168,168
1617112222.2014382,164,164,164,164,164,164,167,167,167,167,167,167
1617112222.3071454,163,163,163,163,163,163,166,166,166,166,166,166
1617112222.4009042,162,162,162,162,162,162,165,165,165,165,165,165
1617112222.4966197,161,161,161,161,161,161,164,164,164,164,164,164
1617112222.5793986,161,161,161,161,161,161,164,164,164,164,164,164
1617112222.677137,160,160,160,160,160,160,163,163,163,163,163,163
1617112222.7694094,159,159,159,159,159,159,162,162,162,162,162,162
1617112222.8739407,158,158,158,158,158,158,161,161,161,161,161,161
1617112222.978661,157,157,157,157,157,157,160,160,160,160,160,160
1617112223.0656424,156,156,156,156,156,156,159,159,159,159,159,159
1617112223.168339,155,155,155,155,155,155,158,158,158,158,158,158
1617112223.2596312,155,155,155,155,155,155,158,158,158,158,158,158
1617112223.3559513,154,154,154,154,154,154,157,157,157,157,157,157
1617112223.4467773,153,153,153,153,153,153,156,156,156,156,156,156
1617112223.538102,152,152,152,152,152,152,155,155,155,155,155,155
1617112223.6298566,151,151,151,151,151,151,154,154,154,154,154,154
1617112223.7473974,150,150,150,150,150,150,153,153,153,153,153,153
1617112223.8431761,149,149,149,149,149,149,152,152,152,152,152,152
1617112223.9378867,149,149,149,149,149,149,152,152,152,152,152,152
1617112224.0461977,148,148,148,148,148,148,151,151,151,151,151,151
1617112224.1445618,147,147,147,147,147,147,150,150,150,150,150,150
1617112224.2420666,146,146,146,146,146,146,149,149,149,149,149,149
1617112224.337041,145,145,145,145,145,145,148,148,148,148,148,148
1617112224.4442616,144,144,144,144,144,144,147,147,147,147,147,147
1617112224.5479836,143,143,143,143,143,143,146,146,146,146,146,146
1617112224.6417334,142,142,142,142,142,142,145,145,145,145,145,145
1617112224.734486,141,141,141,141,141,141,144,144,144,144,144,144
1617112224.8482206,140,140,140,140,140,140,143,143,143,143,143,143
1617112224.9539397,139,139,139,139,139,139,142,142,142,142,142,142
1617112225.0547051,138,138,138,138,138,138,141,141,141,141,141,141
1617112225.1488025,138,138,138,138,138,138,141,141,141,141,141,141
1617112225.2515316,137,137,137,137,137,137,140,140,140,140,140,140
1617112225.3513951,136,136,136,136,136,136,139,139,139,139,139,139
1617112225.4407012,135,135,135,135,135,135,138,138,138,138,138,138
1617112225.549556,134,134,134,134,134,134,137,137,137,137,137,137
1617112225.6567757,133,133,133,133,133,133,136,136,136,136,136,136
1617112225.751105,132,132,132,132,132,132,135,135,135,135,135,135
1617112225.8558667,131,131,131,131,131,131,134,134,134,134,134,134
1617112225.948289,130,130,130,130,130,130,133,133,133,133,133,133
1617112226.040795,130,130,130,130,130,130,133,133,133,133,133,133
1617112226.1305842,129,129,129,129,129,129,132,132,132,132,132,132
1617112226.2422574,128,128,128,128,128,128,131,131,131,131,131,131
1617112226.3502116,127,127,127,127,127,127,130,130,130,130,130,130
1617112226.4425578,126,126,126,126,126,126,129,129,129,129,129,129
1617112226.5512714,125,125,125,125,125,125,128,128,128,128,128,128
1617112226.6589856,124,124,124,124,124,124,127,127,127,127,127,127
1617112226.7577205,123,123,123,123,123,123,126,126,126,126,126,126
1617112226.8624413,122,122,122,122,122,122,125,125,125,125,125,125
1617112226.9547575,121,121,121,121,121,121,124,124,124,124,124,124
1617112227.0598626,121,121,121,121,121,121,124,124,124,124,124,124
1617112227.1532154,120,120,120,120,120,120,123,123,123,123,123,123
1617112227.2509286,119,119,119,119,119,119,122,122,122,122,122,122
1617112227.3436818,118,118,118,118,118,118,121,121,121,121,121,121
1617112227.4533803,117,117,117,117,117,117,120,120,120,120,120,120
1617112227.5641592,116,116,116,116,116,116,119,119,119,119,119,119
1617112227.6733227,115,115,115,115,115,115,118,118,118,118,118,118
1617112227.7730644,114,114,114,114,114,114,117,117,117,117,117,117
1617112227.87579,113,113,113,113,113,113,116,116,116,116,116,116
1617112227.9815078,113,113,113,113,113,113,116,116,116,116,116,116
1617112228.089218,112,112,112,112,112,112,115,115,115,115,115,115
1617112228.1750226,111,111,111,111,111,111,114,114,114,114,114,114
1617112228.2893636,110,110,110,110,110,110,113,113,113,113,113,113
1617112228.3856738,109,109,109,109,109,109,112,112,112,112,112,112
1617112228.49066,108,108,108,108,108,108,111,111,111,111,111,111
1617112228.5913606,107,107,107,107,107,107,110,110,110,110,110,110
1617112228.6801493,106,106,106,106,106,106,109,109,109,109,109,109
1617112228.78385,105,105,105,105,105,105,108,108,108,108,108,108
1617112228.8988092,104,104,104,104,104,104,107,107,107,107,107,107
1617112228.9931388,104,104,104,104,104,104,107,107,107,107,107,107
1617112229.095864,103,103,103,103,103,103,106,106,106,106,106,106
1617112229.210558,102,102,102,102,102,102,105,105,105,105,105,105
1617112229.3040512,101,101,101,101,101,101,104,104,104,104,104,104
1617112229.488363,100,100,100,100,100,100,102,102,102,102,102,102
1617112229.5980985,99,99,99,99,99,99,101,101,101,101,101,101
1617112229.6949656,98,98,98,98,98,98,100,100,100,100,100,100
1617112229.7847588,97,97,97,97,97,97,100,100,100,100,100,100
1617112229.895493,96,96,96,96,96,96,99,99,99,99,99,99
1617112229.9835339,95,95,95,95,95,95,98,98,98,98,98,98
1617112230.0993226,94,94,94,94,94,94,97,97,97,97,97,97
1617112230.193341,93,93,93,93,93,93,96,96,96,96,96,96
1617112230.2943468,92,92,92,92,92,92,95,95,95,95,95,95
1617112230.4034972,91,91,91,91,91,91,94,94,94,94,94,94
1617112230.4973578,90,90,90,90,90,90,93,93,93,93,93,93
1617112230.5894523,89,89,89,89,89,89,92,92,92,92,92,92
1617112230.6774535,89,89,89,89,89,89,92,92,92,92,92,92
1617112230.7745872,88,88,88,88,88,88,91,91,91,91,91,91
1617112230.8683085,87,87,87,87,87,87,90,90,90,90,90,90
1617112230.9620566,86,86,86,86,86,86,89,89,89,89,89,89
1617112231.0687845,85,85,85,85,85,85,88,88,88,88,88,88
1617112231.172507,84,84,84,84,84,84,87,87,87,87,87,87
1617112231.2981706,83,83,83,83,83,83,86,86,86,86,86,86
1617112231.409872,82,82,82,82,82,82,85,85,85,85,85,85
1617112231.5046487,81,81,81,81,81,81,84,84,84,84,84,84
1617112231.6053517,80,80,80,80,80,80,83,83,83,83,83,83
1617112231.698102,79,79,79,79,79,79,82,82,82,82,82,82
1617112231.8008206,78,78,78,78,78,78,82,82,82,82,82,82
1617112231.9052358,77,77,77,77,77,77,81,81,81,81,81,81
1617112232.031926,76,76,76,76,76,76,80,80,80,80,80,80
1617112232.1437714,75,75,75,75,75,75,79,79,79,79,79,79
1617112232.2430475,74,74,74,74,74,74,78,78,78,78,78,78
1617112232.343974,74,74,74,74,74,74,77,77,77,77,77,77
1617112232.4567006,73,73,73,73,73,73,76,76,76,76,76,76
1617112232.5576856,72,72,72,72,72,72,75,75,75,75,75,75
1617112232.6514785,71,71,71,71,71,71,74,74,74,74,74,74
1617112232.7492003,70,70,70,70,70,70,73,73,73,73,73,73
1617112232.8518982,69,69,69,69,69,69,72,72,72,72,72,72
1617112232.945781,68,68,68,68,68,68,71,71,71,71,71,71
1617112233.0395312,67,67,67,67,67,67,70,70,70,70,70,70
1617112233.142294,66,66,66,66,66,66,69,69,69,69,69,69
1617112233.2669523,65,65,65,65,65,65,68,68,68,68,68,68
1617112233.3586771,64,64,64,64,64,64,67,67,67,67,67,67
1617112233.4534256,64,64,64,64,64,64,67,67,67,67,67,67
1617112233.5668268,63,63,63,63,63,63,66,66,66,66,66,66
1617112233.6626089,62,62,62,62,62,62,65,65,65,65,65,65
1617112233.7582839,61,61,61,61,61,61,64,64,64,64,64,64
1617112233.8564916,60,60,60,60,60,60,63,63,63,63,63,63
1617112233.9607198,59,59,59,59,59,59,62,62,62,62,62,62
1617112234.0664368,58,58,58,58,58,58,61,61,61,61,61,61
1617112234.1602175,57,57,57,57,57,57,60,60,60,60,60,60
1617112234.2549918,57,57,57,57,57,57,60,60,60,60,60,60
1617112234.345215,56,56,56,56,56,56,59,59,59,59,59,59
1617112234.4559498,55,55,55,55,55,55,58,58,58,58,58,58
1617112234.558675,54,54,54,54,54,54,57,57,57,57,57,57
1617112234.672256,53,53,53,53,53,53,56,56,56,56,56,56
1617112234.7769766,52,52,52,52,52,52,55,55,55,55,55,55
1617112234.8687303,51,51,51,51,51,51,54,54,54,54,54,54
1617112234.9535043,50,50,50,50,50,50,53,53,53,53,53,53
1617112235.056885,50,50,50,50,50,50,53,53,53,53,53,53
1617112235.15562,49,49,49,49,49,49,52,52,52,52,52,52
1617112235.254126,48,48,48,48,48,48,51,51,51,51,51,51
1617112235.3672626,47,47,47,47,47,47,50,50,50,50,50,50
1617112235.4585533,46,46,46,46,46,46,49,49,49,49,49,49
1617112235.5592945,45,45,45,45,45,45,48,48,48,48,48,48
1617112235.6500666,44,44,44,44,44,44,47,47,47,47,47,47
1617112235.7412257,44,44,44,44,44,44,47,47,47,47,47,47
1617112235.8322585,43,43,43,43,43,43,46,46,46,46,46,46
1617112235.9259849,42,42,42,42,42,42,45,45,45,45,45,45
1617112236.019733,41,41,41,41,41,41,44,44,44,44,44,44
1617112236.1294403,40,40,40,40,40,40,43,43,43,43,43,43
1617112236.222193,39,39,39,39,39,39,42,42,42,42,42,42
1617112236.3229518,38,38,38,38,38,38,41,41,41,41,41,41
1617112236.4187884,38,38,38,38,38,38,41,41,41,41,41,41
1617112236.53151,37,37,37,37,37,37,40,40,40,40,40,40
1617112236.6417205,36,36,36,36,36,36,39,39,39,39,39,39
1617112236.7500527,35,35,35,35,35,35,38,38,38,38,38,38
1617112236.8448002,34,34,34,34,34,34,37,37,37,37,37,37
1617112236.9385493,33,33,33,33,33,33,36,36,36,36,36,36
1617112237.0337653,32,32,32,32,32,32,35,35,35,35,35,35
1617112237.127026,31,31,31,31,31,31,34,34,34,34,34,34
1617112237.2267601,30,30,30,30,30,30,33,33,33,33,33,33
1617112237.3339794,29,29,29,29,29,29,32,32,32,32,32,32
1617112237.4436858,28,28,28,28,28,28,31,31,31,31,31,31
1617112237.5454144,27,27,27,27,27,27,31,31,31,31,31,31
1617112237.6572554,26,26,26,26,26,26,30,30,30,30,30,30
1617112237.7749412,25,25,25,25,25,25,29,29,29,29,29,29
1617112237.888496,24,24,24,24,24,24,28,28,28,28,28,28
1617112237.9971752,23,23,23,23,23,23,27,27,27,27,27,27
1617112238.0839589,22,22,22,22,22,22,26,26,26,26,26,26
1617112238.1727216,22,22,22,22,22,22,25,25,25,25,25,25
1617112238.2854505,21,21,21,21,21,21,24,24,24,24,24,24
1617112238.398149,20,20,20,20,20,20,23,23,23,23,23,23
1617112238.4912527,19,19,19,19,19,19,22,22,22,22,22,22
1617112238.5810413,18,18,18,18,18,18,21,21,21,21,21,21
1617112238.6887505,17,17,17,17,17,17,20,20,20,20,20,20
1617112238.783472,16,16,16,16,16,16,20,20,20,20,20,20
1617112238.8797774,15,15,15,15,15,15,19,19,19,19,19,19
1617112238.970784,14,14,14,14,14,14,18,18,18,18,18,18
1617112239.0880337,13,13,13,13,13,13,17,17,17,17,17,17
1617112239.171364,12,12,12,12,12,12,16,16,16,16,16,16
1617112239.265915,11,11,11,11,11,11,15,15,15,15,15,15
1617112239.359691,11,11,11,11,11,11,14,14,14,14,14,14
1617112239.4713025,10,10,10,10,10,10,13,13,13,13,13,13
1617112239.573063,9,9,9,9,9,9,12,12,12,12,12,12
1617112239.6673207,8,8,8,8,8,8,11,11,11,11,11,11
1617112239.7626293,7,7,7,7,7,7,11,11,11,11,11,11
1617112239.8447359,6,6,6,6,6,6,10,10,10,10,10,10
1617112239.9648693,5,5,5,5,5,5,9,9,9,9,9,9
1617112240.0709515,4,4,4,4,4,4,8,8,8,8,8,8
1617112240.1666949,3,3,3,3,3,3,7,7,7,7,7,7
1617112240.2594478,3,3,3,3,3,3,6,6,6,6,6,6
1617112240.3551912,2,2,2,2,2,2,5,5,5,5,5,5
1617112240.4589138,1,1,1,1,1,1,4,4,4,4,4,4
1617112240.5501807,0,0,0,0,0,0,4,4,4,4,4,4
1617112240.645923,1,1,1,1,1,1,3,3,3,3,3,3
1617112240.7646337,2,2,2,2,2,2,2,2,2,2,2,2
1617112240.8749924,3,3,3,3,3,3,1,1,1,1,1,1
1617112240.9797134,4,4,4,4,4,4,0,0,0,0,0,0
1617112241.082946,5,5,5,5,5,5,1,1,1,1,1,1
1617112241.172706,6,6,6,6,6,6,2,2,2,2,2,2
1617112241.2807057,7,7,7,7,7,7,3,3,3,3,3,3
1617112241.3889892,8,8,8,8,8,8,4,4,4,4,4,4
1617112241.502519,9,9,9,9,9,9,5,5,5,5,5,5
1617112241.598262,10,10,10,10,10,10,6,6,6,6,6,6
1617112241.7030149,10,10,10,10,10,10,7,7,7,7,7,7
1617112241.8122277,11,11,11,11,11,11,8,8,8,8,8,8
1617112241.935821,12,12,12,12,12,12,9,9,9,9,9,9
1617112242.0416567,13,13,13,13,13,13,10,10,10,10,10,10
1617112242.1329505,14,14,14,14,14,14,10,10,10,10,10,10
1617112242.2406604,15,15,15,15,15,15,11,11,11,11,11,11
1617112242.3264015,16,16,16,16,16,16,12,12,12,12,12,12
1617112242.4213483,17,17,17,17,17,17,13,13,13,13,13,13
1617112242.5360684,18,18,18,18,18,18,14,14,14,14,14,14
1617112242.6437812,19,19,19,19,19,19,15,15,15,15,15,15
1617112242.752465,20,20,20,20,20,20,16,16,16,16,16,16
1617112242.8602116,21,21,21,21,21,21,17,17,17,17,17,17
1617112242.9668925,22,22,22,22,22,22,18,18,18,18,18,18
1617112243.075601,23,23,23,23,23,23,19,19,19,19,19,19
1617112243.1629233,24,24,24,24,24,24,20,20,20,20,20,20
1617112243.2618086,24,24,24,24,24,24,20,20,20,20,20,20
1617112243.3615742,25,25,25,25,25,25,21,21,21,21,21,21
1617112243.4583666,26,26,26,26,26,26,22,22,22,22,22,22
1617112243.5703423,27,27,27,27,27,27,23,23,23,23,23,23
1617112243.6642394,28,28,28,28,28,28,24,24,24,24,24,24
1617112243.7520068,29,29,29,29,29,29,25,25,25,25,25,25
1617112243.8662493,30,30,30,30,30,30,26,26,26,26,26,26
1617112243.9629927,31,31,31,31,31,31,27,27,27,27,27,27
1617112244.0657184,32,32,32,32,32,32,28,28,28,28,28,28
1617112244.1733022,33,33,33,33,33,33,29,29,29,29,29,29
1617112244.2817671,34,34,34,34,34,34,30,30,30,30,30,30
1617112244.390479,34,34,34,34,34,34,30,30,30,30,30,30
1617112244.4982646,35,35,35,35,35,35,31,31,31,31,31,31
1617112244.6149843,36,36,36,36,36,36,32,32,32,32,32,32
1617112244.7286513,37,37,37,37,37,37,33,33,33,33,33,33
1617112244.8375468,38,38,38,38,38,38,34,34,34,34,34,34
1617112244.9452875,39,39,39,39,39,39,35,35,35,35,35,35
1617112245.0380392,40,40,40,40,40,40,36,36,36,36,36,36
1617112245.1280422,41,41,41,41,41,41,37,37,37,37,37,37
1617112245.2216733,42,42,42,42,42,42,38,38,38,38,38,38
1617112245.329398,43,43,43,43,43,43,39,39,39,39,39,39
1617112245.4231474,44,44,44,44,44,44,40,40,40,40,40,40
1617112245.5331676,45,45,45,45,45,45,41,41,41,41,41,41
1617112245.6434076,46,46,46,46,46,46,42,42,42,42,42,42
1617112245.7515981,47,47,47,47,47,47,43,43,43,43,43,43
1617112245.8503332,48,48,48,48,48,48,44,44,44,44,44,44
1617112245.9423923,48,48,48,48,48,48,44,44,44,44,44,44
1617112246.0392365,49,49,49,49,49,49,45,45,45,45,45,45
1617112246.1549282,50,50,50,50,50,50,46,46,46,46,46,46
1617112246.2801034,51,51,51,51,51,51,47,47,47,47,47,47
1617112246.3831007,52,52,52,52,52,52,48,48,48,48,48,48
1617112246.4805958,53,53,53,53,53,53,49,49,49,49,49,49
1617112246.5633442,54,54,54,54,54,54,50,50,50,50,50,50
1617112246.6675823,55,55,55,55,55,55,51,51,51,51,51,51
1617112246.7613633,56,56,56,56,56,56,52,52,52,52,52,52
1617112246.851123,57,57,57,57,57,57,53,53,53,53,53,53
1617112246.960799,58,58,58,58,58,58,54,54,54,54,54,54
1617112247.056567,59,59,59,59,59,59,55,55,55,55,55,55
1617112247.1403437,59,59,59,59,59,59,55,55,55,55,55,55
1617112247.2370152,60,60,60,60,60,60,56,56,56,56,56,56
1617112247.331269,61,61,61,61,61,61,57,57,57,57,57,57
1617112247.4270132,62,62,62,62,62,62,58,58,58,58,58,58
1617112247.5147824,63,63,63,63,63,63,59,59,59,59,59,59
1617112247.6124685,64,64,64,64,64,64,60,60,60,60,60,60
1617112247.71679,65,65,65,65,65,65,61,61,61,61,61,61
1617112247.7965772,65,65,65,65,65,65,61,61,61,61,61,61
1617112247.905317,66,66,66,66,66,66,62,62,62,62,62,62
1617112248.023986,67,67,67,67,67,67,63,63,63,63,63,63
1617112248.1188362,68,68,68,68,68,68,64,64,64,64,64,64
1617112248.2165437,69,69,69,69,69,69,65,65,65,65,65,65
1617112248.3133063,70,70,70,70,70,70,66,66,66,66,66,66
1617112248.4329882,71,71,71,71,71,71,67,67,67,67,67,67
1617112248.5307763,72,72,72,72,72,72,68,68,68,68,68,68
1617112248.638463,73,73,73,73,73,73,69,69,69,69,69,69
1617112248.7430034,74,74,74,74,74,74,70,70,70,70,70,70
1617112248.8407419,75,75,75,75,75,75,71,71,71,71,71,71
1617112248.9340568,76,76,76,76,76,76,72,72,72,72,72,72
1617112249.0162423,76,76,76,76,76,76,72,72,72,72,72,72
1617112249.1080258,77,77,77,77,77,77,73,73,73,73,73,73
1617112249.2053866,78,78,78,78,78,78,74,74,74,74,74,74
1617112249.3171594,79,79,79,79,79,79,75,75,75,75,75,75
1617112249.41537,80,80,80,80,80,80,76,76,76,76,76,76
1617112249.508641,81,81,81,81,81,81,77,77,77,77,77,77
1617112249.601919,82,82,82,82,82,82,78,78,78,78,78,78
1617112249.7056413,83,83,83,83,83,83,79,79,79,79,79,79
1617112249.808368,84,84,84,84,84,84,80,80,80,80,80,80
1617112249.9091246,85,85,85,85,85,85,81,81,81,81,81,81
1617112250.0018497,85,85,85,85,85,85,81,81,81,81,81,81
1617112250.1062121,86,86,86,86,86,86,82,82,82,82,82,82
1617112250.2019825,87,87,87,87,87,87,83,83,83,83,83,83
1617112250.3106673,88,88,88,88,88,88,84,84,84,84,84,84
1617112250.4004264,89,89,89,89,89,89,85,85,85,85,85,85
1617112250.5101347,90,90,90,90,90,90,86,86,86,86,86,86
1617112250.6009262,91,91,91,91,91,91,87,87,87,87,87,87
1617112250.7096374,92,92,92,92,92,92,88,88,88,88,88,88
1617112250.8133593,93,93,93,93,93,93,89,89,89,89,89,89
1617112250.9137564,94,94,94,94,94,94,90,90,90,90,90,90
1617112251.021336,95,95,95,95,95,95,91,91,91,91,91,91
1617112251.1126053,96,96,96,96,96,96,92,92,92,92,92,92
1617112251.2207932,96,96,96,96,96,96,92,92,92,92,92,92
1617112251.312899,97,97,97,97,97,97,93,93,93,93,93,93
1617112251.4119399,98,98,98,98,98,98,94,94,94,94,94,94
1617112251.5030348,99,99,99,99,99,99,95,95,95,95,95,95
1617112251.7163393,100,100,100,100,100,100,97,97,97,97,97,97
1617112251.8170695,101,101,101,101,101,101,98,98,98,98,98,98
1617112251.9098213,102,102,102,102,102,102,98,98,98,98,98,98
1617112252.0097513,103,103,103,103,103,103,99,99,99,99,99,99
1617112252.1064944,104,104,104,104,104,104,100,100,100,100,100,100
1617112252.2052312,105,105,105,105,105,105,101,101,101,101,101,101
1617112252.3069892,106,106,106,106,106,106,102,102,102,102,102,102
1617112252.3997674,107,107,107,107,107,107,103,103,103,103,103,103
1617112252.491379,108,108,108,108,108,108,104,104,104,104,104,104
1617112252.599062,108,108,108,108,108,108,104,104,104,104,104,104
1617112252.7088373,109,109,109,109,109,109,105,105,105,105,105,105
1617112252.8092036,110,110,110,110,110,110,106,106,106,106,106,106
1617112252.9119296,111,111,111,111,111,111,107,107,107,107,107,107
1617112253.0190525,112,112,112,112,112,112,108,108,108,108,108,108
1617112253.1228034,113,113,113,113,113,113,109,109,109,109,109,109
1617112253.217522,114,114,114,114,114,114,110,110,110,110,110,110
1617112253.3162577,115,115,115,115,115,115,111,111,111,111,111,111
1617112253.416021,116,116,116,116,116,116,112,112,112,112,112,112
1617112253.5027611,117,117,117,117,117,117,113,113,113,113,113,113
1617112253.5955114,117,117,117,117,117,117,113,113,113,113,113,113
1617112253.6892612,118,118,118,118,118,118,114,114,114,114,114,114
1617112253.799965,119,119,119,119,119,119,115,115,115,115,115,115
1617112253.8957381,120,120,120,120,120,120,116,116,116,116,116,116
1617112253.9974368,121,121,121,121,121,121,117,117,117,117,117,117
1617112254.0819185,122,122,122,122,122,122,118,118,118,118,118,118
1617112254.186917,123,123,123,123,123,123,119,119,119,119,119,119
1617112254.2876472,124,124,124,124,124,124,120,120,120,120,120,120
1617112254.3908317,125,125,125,125,125,125,121,121,121,121,121,121
1617112254.4976523,126,126,126,126,126,126,122,122,122,122,122,122
1617112254.5811603,126,126,126,126,126,126,122,122,122,122,122,122
1617112254.682688,127,127,127,127,127,127,123,123,123,123,123,123
1617112254.7744431,128,128,128,128,128,128,124,124,124,124,124,124
1617112254.8731785,129,129,129,129,129,129,125,125,125,125,125,125
1617112254.973909,130,130,130,130,130,130,126,126,126,126,126,126
1617112255.0821066,131,131,131,131,131,131,127,127,127,127,127,127
1617112255.2057462,132,132,132,132,132,132,128,128,128,128,128,128
1617112255.3144572,133,133,133,133,133,133,129,129,129,129,129,129
1617112255.421198,134,134,134,134,134,134,130,130,130,130,130,130
1617112255.5258899,135,135,135,135,135,135,131,131,131,131,131,131
1617112255.6156492,136,136,136,136,136,136,132,132,132,132,132,132
1617112255.7230332,137,137,137,137,137,137,133,133,133,133,133,133
1617112255.8347344,138,138,138,138,138,138,134,134,134,134,134,134
1617112255.9374878,139,139,139,139,139,139,135,135,135,135,135,135
1617112256.0522068,140,140,140,140,140,140,136,136,136,136,136,136
1617112256.142128,140,140,140,140,140,140,136,136,136,136,136,136
1617112256.2353892,141,141,141,141,141,141,137,137,137,137,137,137
1617112256.3411057,142,142,142,142,142,142,138,138,138,138,138,138
1617112256.4338593,143,143,143,143,143,143,139,139,139,139,139,139
1617112256.5276363,144,144,144,144,144,144,140,140,140,140,140,140
1617112256.6223545,145,145,145,145,145,145,141,141,141,141,141,141
1617112256.702169,146,146,146,146,146,146,142,142,142,142,142,142
1617112256.7988503,147,147,147,147,147,147,143,143,143,143,143,143
1617112256.8960714,147,147,147,147,147,147,143,143,143,143,143,143
1617112256.9978282,148,148,148,148,148,148,144,144,144,144,144,144
1617112257.0795825,149,149,149,149,149,149,145,145,145,145,145,145
1617112257.1952717,150,150,150,150,150,150,146,146,146,146,146,146
1617112257.2969995,151,151,151,151,151,151,147,147,147,147,147,147
1617112257.4105504,152,152,152,152,152,152,148,148,148,148,148,148
1617112257.509262,153,153,153,153,153,153,149,149,149,149,149,149
1617112257.6095903,154,154,154,154,154,154,150,150,150,150,150,150
1617112257.7263093,155,155,155,155,155,155,151,151,151,151,151,151
1617112257.8110828,156,156,156,156,156,156,152,152,152,152,152,152
1617112257.934106,157,157,157,157,157,157,153,153,153,153,153,153
1617112258.0263667,157,157,157,157,157,157,153,153,153,153,153,153
1617112258.1203635,158,158,158,158,158,158,154,154,154,154,154,154
1617112258.2121196,159,159,159,159,159,159,155,155,155,155,155,155
1617112258.3103626,160,160,160,160,160,160,156,156,156,156,156,156
1617112258.407609,161,161,161,161,161,161,157,157,157,157,157,157
1617112258.5104067,162,162,162,162,162,162,158,158,158,158,158,158
1617112258.6121328,163,163,163,163,163,163,159,159,159,159,159,159
1617112258.7059116,164,164,164,164,164,164,160,160,160,160,160,160
1617112258.8037903,164,164,164,164,164,164,160,160,160,160,160,160
1617112258.918662,165,165,165,165,165,165,161,161,161,161,161,161
1617112259.0104175,166,166,166,166,166,166,162,162,162,162,162,162
1617112259.10716,167,167,167,167,167,167,163,163,163,163,163,163
1617112259.200909,168,168,168,168,168,168,164,164,164,164,164,164
1617112259.2907126,169,169,169,169,169,169,165,165,165,165,165,165
1617112259.3824975,170,170,170,170,170,170,166,166,166,166,166,166
1617112259.490336,171,171,171,171,171,171,167,167,167,167,167,167
1617112259.5975845,171,171,171,171,171,171,167,167,167,167,167,167
1617112259.708278,172,172,172,172,172,172,168,168,168,168,168,168
1617112259.8139837,173,173,173,173,173,173,169,169,169,169,169,169
1617112259.9054582,174,174,174,174,174,174,170,170,170,170,170,170
1617112260.019708,175,175,175,175,175,175,171,171,171,171,171,171
1617112260.1247418,176,176,176,176,176,176,172,172,172,172,172,172
1617112260.2254746,177,177,177,177,177,177,173,173,173,173,173,173
1617112260.321218,178,178,178,178,178,178,174,174,174,174,174,174
1617112260.421953,179,179,179,179,179,179,175,175,175,175,175,175
1617112260.5487611,180,180,180,180,180,180,176,176,176,176,176,176
1617112260.6420507,181,181,181,181,181,181,177,177,177,177,177,177
1617112260.749789,182,182,182,182,182,182,178,178,178,178,178,178
1617112260.8524964,183,183,183,183,183,183,179,179,179,179,179,179
1617112260.949202,184,184,184,184,184,184,180,180,180,180,180,180
1617112261.0374372,185,185,185,185,185,185,181,181,181,181,181,181
1617112261.1261995,185,185,185,185,185,185,181,181,181,181,181,181
1617112261.2182755,186,186,186,186,186,186,182,182,182,182,182,182
1617112261.3399506,187,187,187,187,187,187,183,183,183,183,183,183
1617112261.4493172,188,188,188,188,188,188,184,184,184,184,184,184
1617112261.558993,189,189,189,189,189,189,185,185,185,185,185,185
1617112261.6547368,190,190,190,190,190,190,186,186,186,186,186,186
1617112261.7620733,191,191,191,191,191,191,187,187,187,187,187,187
1617112261.850838,192,192,192,192,192,192,188,188,188,188,188,188
1617112261.9583604,193,193,193,193,193,193,189,189,189,189,189,189
1617112262.0650508,194,194,194,194,194,194,190,190,190,190,190,190
1617112262.1737614,195,195,195,195,195,195,191,191,191,191,191,191
1617112262.292444,196,196,196,196,196,196,192,192,192,192,192,192
1617112262.3863947,197,197,197,197,197,197,193,193,193,193,193,193
1617112262.4836671,198,198,198,198,198,198,194,194,194,194,194,194
1617112262.5995188,199,199,199,199,199,199,195,195,195,195,195,195
1617112262.7008145,200,200,200,200,200,200,196,196,196,196,196,196
1617112262.792568,200,200,200,200,200,200,196,196,196,196,196,196
1617112262.8823283,201,201,201,201,201,201,197,197,197,197,197,197
1617112262.9930334,200,200,200,200,200,200,198,198,198,198,198,198
1617112263.0878055,199,199,199,199,199,199,199,199,199,199,199,199
1617112263.1725495,198,198,198,198,198,198,200,200,200,200,200,200
1617112263.273649,197,197,197,197,197,197,201,201,201,201,201,201
1617112263.3654044,196,196,196,196,196,196,201,201,201,201,201,201
1617112263.4731514,195,195,195,195,195,195,200,200,200,200,200,200
1617112263.5808563,194,194,194,194,194,194,199,199,199,199,199,199
1617112263.6741178,194,194,194,194,194,194,198,198,198,198,198,198
1617112263.7654266,193,193,193,193,193,193,197,197,197,197,197,197
1617112263.875163,192,192,192,192,192,192,196,196,196,196,196,196
1617112263.9823582,191,191,191,191,191,191,195,195,195,195,195,195
1617112264.0681741,190,190,190,190,190,190,194,194,194,194,194,194
1617112264.1639123,189,189,189,189,189,189,193,193,193,193,193,193
1617112264.2805996,188,188,188,188,188,188,192,192,192,192,192,192
1617112264.4060388,187,187,187,187,187,187,191,191,191,191,191,191
1617112264.5047736,186,186,186,186,186,186,190,190,190,190,190,190
1617112264.5945337,185,185,185,185,185,185,189,189,189,189,189,189
1617112264.6892798,184,184,184,184,184,184,188,188,188,188,188,188
1617112264.800982,183,183,183,183,183,183,187,187,187,187,187,187
1617112264.8949459,183,183,183,183,183,183,187,187,187,187,187,187
1617112264.9837112,182,182,182,182,182,182,186,186,186,186,186,186
1617112265.099248,181,181,181,181,181,181,185,185,185,185,185,185
1617112265.2059624,180,180,180,180,180,180,184,184,184,184,184,184
1617112265.3112245,179,179,179,179,179,179,183,183,183,183,183,183
1617112265.4077654,178,178,178,178,178,178,182,182,182,182,182,182
1617112265.5080347,177,177,177,177,177,177,181,181,181,181,181,181
1617112265.5972443,177,177,177,177,177,177,180,180,180,180,180,180
1617112265.6866498,176,176,176,176,176,176,180,180,180,180,180,180
1617112265.7824206,175,175,175,175,175,175,179,179,179,179,179,179
1617112265.876684,174,174,174,174,174,174,178,178,178,178,178,178
1617112265.972398,173,173,173,173,173,173,177,177,177,177,177,177
1617112266.069137,172,172,172,172,172,172,176,176,176,176,176,176
1617112266.1733642,171,171,171,171,171,171,175,175,175,175,175,175
1617112266.2815797,170,170,170,170,170,170,174,174,174,174,174,174
1617112266.3824286,169,169,169,169,169,169,173,173,173,173,173,173
1617112266.4734435,169,169,169,169,169,169,173,173,173,173,173,173
1617112266.5791318,168,168,168,168,168,168,172,172,172,172,172,172
1617112266.6781929,167,167,167,167,167,167,171,171,171,171,171,171
1617112266.7709026,166,166,166,166,166,166,170,170,170,170,170,170
1617112266.8686419,165,165,165,165,165,165,169,169,169,169,169,169
1617112266.9813693,164,164,164,164,164,164,168,168,168,168,168,168
1617112267.0751348,163,163,163,163,163,163,167,167,167,167,167,167
1617112267.1718302,162,162,162,162,162,162,166,166,166,166,166,166
1617112267.289545,161,161,161,161,161,161,165,165,165,165,165,165
1617112267.3882875,160,160,160,160,160,160,164,164,164,164,164,164
1617112267.4770153,159,159,159,159,159,159,163,163,163,163,163,163
1617112267.5753415,159,159,159,159,159,159,163,163,163,163,163,163
1617112267.6777198,158,158,158,158,158,158,162,162,162,162,162,162
1617112267.7762392,157,157,157,157,157,157,161,161,161,161,161,161
1617112267.8669684,156,156,156,156,156,156,160,160,160,160,160,160
1617112267.9755085,155,155,155,155,155,155,159,159,159,159,159,159
1617112268.0804195,154,154,154,154,154,154,158,158,158,158,158,158
1617112268.1785717,153,153,153,153,153,153,157,157,157,157,157,157
1617112268.2838733,152,152,152,152,152,152,156,156,156,156,156,156
1617112268.3930922,151,151,151,151,151,151,155,155,155,155,155,155
1617112268.5025647,150,150,150,150,150,150,154,154,154,154,154,154
1617112268.5983372,149,149,149,149,149,149,153,153,153,153,153,153
1617112268.7020638,149,149,149,149,149,149,153,153,153,153,153,153
1617112268.8137622,148,148,148,148,148,148,152,152,152,152,152,152
1617112268.9124677,147,147,147,147,147,147,151,151,151,151,151,151
1617112269.0122023,146,146,146,146,146,146,150,150,150,150,150,150
1617112269.1029592,145,145,145,145,145,145,149,149,149,149,149,149
1617112269.1868446,144,144,144,144,144,144,148,148,148,148,148,148
1617112269.2845826,143,143,143,143,143,143,147,147,147,147,147,147
1617112269.379862,142,142,142,142,142,142,146,146,146,146,146,146
1617112269.4726133,142,142,142,142,142,142,146,146,146,146,146,146
1617112269.5788565,141,141,141,141,141,141,145,145,145,145,145,145
1617112269.6879132,140,140,140,140,140,140,144,144,144,144,144,144
1617112269.7796793,139,139,139,139,139,139,143,143,143,143,143,143
1617112269.8873522,138,138,138,138,138,138,142,142,142,142,142,142
1617112269.9681377,137,137,137,137,137,137,141,141,141,141,141,141
1617112270.0923026,136,136,136,136,136,136,140,140,140,140,140,140
1617112270.2020316,135,135,135,135,135,135,139,139,139,139,139,139
1617112270.3256776,134,134,134,134,134,134,138,138,138,138,138,138
1617112270.4204252,133,133,133,133,133,133,137,137,137,137,137,137
1617112270.5428858,132,132,132,132,132,132,136,136,136,136,136,136
1617112270.6515653,131,131,131,131,131,131,135,135,135,135,135,135
1617112270.7608068,130,130,130,130,130,130,134,134,134,134,134,134
1617112270.854553,129,129,129,129,129,129,133,133,133,133,133,133
1617112270.9393039,128,128,128,128,128,128,132,132,132,132,132,132
1617112271.0550208,128,128,128,128,128,128,132,132,132,132,132,132
1617112271.1637025,127,127,127,127,127,127,131,131,131,131,131,131
1617112271.269002,126,126,126,126,126,126,130,130,130,130,130,130
1617112271.3641064,125,125,125,125,125,125,129,129,129,129,129,129
1617112271.4726586,124,124,124,124,124,124,128,128,128,128,128,128
1617112271.5633872,123,123,123,123,123,123,127,127,127,127,127,127
1617112271.6571653,122,122,122,122,122,122,126,126,126,126,126,126
1617112271.7628546,121,121,121,121,121,121,125,125,125,125,125,125
1617112271.860923,120,120,120,120,120,120,124,124,124,124,124,124
1617112271.955636,119,119,119,119,119,119,123,123,123,123,123,123
1617112272.0639331,118,118,118,118,118,118,122,122,122,122,122,122
1617112272.1654034,117,117,117,117,117,117,121,121,121,121,121,121
1617112272.2641695,117,117,117,117,117,117,121,121,121,121,121,121
1617112272.3778365,116,116,116,116,116,116,120,120,120,120,120,120
1617112272.4711576,115,115,115,115,115,115,119,119,119,119,119,119
1617112272.57192,114,114,114,114,114,114,118,118,118,118,118,118
1617112272.6816292,113,113,113,113,113,113,117,117,117,117,117,117
1617112272.7903068,112,112,112,112,112,112,116,116,116,116,116,116
1617112272.8978558,111,111,111,111,111,111,115,115,115,115,115,115
1617112272.9926026,110,110,110,110,110,110,114,114,114,114,114,114
1617112273.0953772,109,109,109,109,109,109,113,113,113,113,113,113
1617112273.2081032,108,108,108,108,108,108,112,112,112,112,112,112
1617112273.2998304,107,107,107,107,107,107,111,111,111,111,111,111
1617112273.4041276,107,107,107,107,107,107,111,111,111,111,111,111
1617112273.4898877,106,106,106,106,106,106,110,110,110,110,110,110
1617112273.6076028,105,105,105,105,105,105,109,109,109,109,109,109
1617112273.7033775,104,104,104,104,104,104,108,108,108,108,108,108
1617112273.7961323,103,103,103,103,103,103,107,107,107,107,107,107
1617112273.9083376,102,102,102,102,102,102,106,106,106,106,106,106
1617112274.004645,101,101,101,101,101,101,105,105,105,105,105,105
1617112274.1866667,100,100,100,100,100,100,103,103,103,103,103,103
1617112274.3095715,99,99,99,99,99,99,102,102,102,102,102,102
1617112274.4342108,98,98,98,98,98,98,101,101,101,101,101,101
1617112274.5337734,97,97,97,97,97,97,100,100,100,100,100,100
1617112274.643997,96,96,96,96,96,96,99,99,99,99,99,99
1617112274.7367496,95,95,95,95,95,95,99,99,99,99,99,99
1617112274.8355122,94,94,94,94,94,94,98,98,98,98,98,98
1617112274.9332252,93,93,93,93,93,93,97,97,97,97,97,97
1617112275.0349524,92,92,92,92,92,92,96,96,96,96,96,96
1617112275.142664,91,91,91,91,91,91,95,95,95,95,95,95
1617112275.240956,90,90,90,90,90,90,94,94,94,94,94,94
1617112275.3290036,89,89,89,89,89,89,93,93,93,93,93,93
1617112275.422753,89,89,89,89,89,89,93,93,93,93,93,93
1617112275.5155048,88,88,88,88,88,88,92,92,92,92,92,92
1617112275.6103718,87,87,87,87,87,87,91,91,91,91,91,91
1617112275.7096586,86,86,86,86,86,86,90,90,90,90,90,90
1617112275.813703,85,85,85,85,85,85,89,89,89,89,89,89
1617112275.9358878,84,84,84,84,84,84,88,88,88,88,88,88
1617112276.0377207,83,83,83,83,83,83,87,87,87,87,87,87
1617112276.1400065,82,82,82,82,82,82,86,86,86,86,86,86
1617112276.2472363,81,81,81,81,81,81,85,85,85,85,85,85
1617112276.3409894,80,80,80,80,80,80,84,84,84,84,84,84
1617112276.4287503,80,80,80,80,80,80,83,83,83,83,83,83
1617112276.5185082,79,79,79,79,79,79,83,83,83,83,83,83
1617112276.6112611,78,78,78,78,78,78,82,82,82,82,82,82
1617112276.7119925,77,77,77,77,77,77,81,81,81,81,81,81
1617112276.7997885,76,76,76,76,76,76,80,80,80,80,80,80
1617112276.9085066,75,75,75,75,75,75,79,79,79,79,79,79
1617112277.025155,74,74,74,74,74,74,78,78,78,78,78,78
1617112277.1258845,73,73,73,73,73,73,77,77,77,77,77,77
1617112277.2492132,72,72,72,72,72,72,76,76,76,76,76,76
1617112277.3551831,71,71,71,71,71,71,75,75,75,75,75,75
1617112277.4559157,71,71,71,71,71,71,74,74,74,74,74,74
1617112277.556716,70,70,70,70,70,70,73,73,73,73,73,73
1617112277.6494489,69,69,69,69,69,69,72,72,72,72,72,72
1617112277.7574859,68,68,68,68,68,68,71,71,71,71,71,71
1617112277.8467782,67,67,67,67,67,67,71,71,71,71,71,71
1617112277.9575124,66,66,66,66,66,66,70,70,70,70,70,70
1617112278.059775,65,65,65,65,65,65,69,69,69,69,69,69
1617112278.141121,64,64,64,64,64,64,68,68,68,68,68,68
1617112278.2349036,63,63,63,63,63,63,67,67,67,67,67,67
1617112278.3570516,62,62,62,62,62,62,66,66,66,66,66,66
1617112278.453791,61,61,61,61,61,61,65,65,65,65,65,65
1617112278.5639336,60,60,60,60,60,60,64,64,64,64,64,64
1617112278.6728802,59,59,59,59,59,59,63,63,63,63,63,63
1617112278.7666893,58,58,58,58,58,58,62,62,62,62,62,62
1617112278.860439,58,58,58,58,58,58,61,61,61,61,61,61
1617112278.957181,57,57,57,57,57,57,60,60,60,60,60,60
1617112279.0499322,56,56,56,56,56,56,60,60,60,60,60,60
1617112279.1626318,55,55,55,55,55,55,59,59,59,59,59,59
1617112279.2653556,54,54,54,54,54,54,58,58,58,58,58,58
1617112279.3740048,53,53,53,53,53,53,57,57,57,57,57,57
1617112279.4802306,52,52,52,52,52,52,56,56,56,56,56,56
1617112279.5760405,51,51,51,51,51,51,55,55,55,55,55,55
1617112279.6725788,50,50,50,50,50,50,54,54,54,54,54,54
1617112279.777331,49,49,49,49,49,49,53,53,53,53,53,53
1617112279.8855703,49,49,49,49,49,49,52,52,52,52,52,52
1617112279.9753785,48,48,48,48,48,48,51,51,51,51,51,51
1617112280.0787628,47,47,47,47,47,47,50,50,50,50,50,50
1617112280.1842847,46,46,46,46,46,46,49,49,49,49,49,49
1617112280.2867932,45,45,45,45,45,45,48,48,48,48,48,48
1617112280.3955026,44,44,44,44,44,44,47,47,47,47,47,47
1617112280.5027726,43,43,43,43,43,43,46,46,46,46,46,46
1617112280.5984895,42,42,42,42,42,42,45,45,45,45,45,45
1617112280.6902416,41,41,41,41,41,41,44,44,44,44,44,44
1617112280.7989814,40,40,40,40,40,40,43,43,43,43,43,43
1617112280.906689,39,39,39,39,39,39,42,42,42,42,42,42
1617112280.999415,38,38,38,38,38,38,41,41,41,41,41,41
1617112281.1250792,37,37,37,37,37,37,40,40,40,40,40,40
1617112281.2327912,36,36,36,36,36,36,39,39,39,39,39,39
1617112281.3345866,35,35,35,35,35,35,38,38,38,38,38,38
1617112281.4376562,34,34,34,34,34,34,37,37,37,37,37,37
1617112281.5532422,33,33,33,33,33,33,36,36,36,36,36,36
1617112281.6684732,32,32,32,32,32,32,35,35,35,35,35,35
1617112281.7636154,31,31,31,31,31,31,34,34,34,34,34,34
1617112281.8546343,31,31,31,31,31,31,34,34,34,34,34,34
1617112281.9469333,30,30,30,30,30,30,33,33,33,33,33,33
1617112282.0402038,29,29,29,29,29,29,32,32,32,32,32,32
1617112282.1329973,28,28,28,28,28,28,31,31,31,31,31,31
1617112282.2290833,27,27,27,27,27,27,30,30,30,30,30,30
1617112282.3367662,26,26,26,26,26,26,29,29,29,29,29,29
1617112282.441973,25,25,25,25,25,25,28,28,28,28,28,28
1617112282.5365722,25,25,25,25,25,25,28,28,28,28,28,28
1617112282.6412919,24,24,24,24,24,24,27,27,27,27,27,27
1617112282.749004,23,23,23,23,23,23,26,26,26,26,26,26
1617112282.8667312,22,22,22,22,22,22,25,25,25,25,25,25
1617112282.9735765,21,21,21,21,21,21,24,24,24,24,24,24
1617112283.0797417,20,20,20,20,20,20,23,23,23,23,23,23
1617112283.1703126,19,19,19,19,19,19,22,22,22,22,22,22
1617112283.270043,18,18,18,18,18,18,21,21,21,21,21,21
1617112283.3765516,17,17,17,17,17,17,20,20,20,20,20,20
1617112283.4802747,16,16,16,16,16,16,19,19,19,19,19,19
1617112283.5800085,15,15,15,15,15,15,18,18,18,18,18,18
1617112283.688757,14,14,14,14,14,14,17,17,17,17,17,17
1617112283.7994564,13,13,13,13,13,13,16,16,16,16,16,16
1617112283.9061718,12,12,12,12,12,12,15,15,15,15,15,15
1617112283.9989798,11,11,11,11,11,11,14,14,14,14,14,14
1617112284.0992796,10,10,10,10,10,10,13,13,13,13,13,13
1617112284.2142725,9,9,9,9,9,9,12,12,12,12,12,12
1617112284.306028,8,8,8,8,8,8,11,11,11,11,11,11
1617112284.403766,8,8,8,8,8,8,11,11,11,11,11,11
1617112284.4977229,7,7,7,7,7,7,10,10,10,10,10,10
1617112284.5814636,6,6,6,6,6,6,9,9,9,9,9,9
1617112284.6752121,5,5,5,5,5,5,8,8,8,8,8,8
1617112284.77896,4,4,4,4,4,4,7,7,7,7,7,7
1617112284.870722,3,3,3,3,3,3,6,6,6,6,6,6
1617112284.9734747,2,2,2,2,2,2,5,5,5,5,5,5
1617112285.0761733,1,1,1,1,1,1,4,4,4,4,4,4
1617112285.1719167,1,1,1,1,1,1,4,4,4,4,4,4
1617112285.2836492,0,0,0,0,0,0,3,3,3,3,3,3
1617112285.3843832,1,1,1,1,1,1,2,2,2,2,2,2
1617112285.4771361,2,2,2,2,2,2,1,1,1,1,1,1
1617112285.570402,3,3,3,3,3,3,0,0,0,0,0,0
1617112285.6701756,4,4,4,4,4,4,1,1,1,1,1,1
1617112285.7774487,5,5,5,5,5,5,2,2,2,2,2,2
1617112285.87075,6,6,6,6,6,6,3,3,3,3,3,3
1617112285.9651306,7,7,7,7,7,7,3,3,3,3,3,3
1617112286.0518737,8,8,8,8,8,8,4,4,4,4,4,4
1617112286.1466215,8,8,8,8,8,8,5,5,5,5,5,5
1617112286.2448664,9,9,9,9,9,9,6,6,6,6,6,6
1617112286.3376184,10,10,10,10,10,10,7,7,7,7,7,7
1617112286.4224205,11,11,11,11,11,11,7,7,7,7,7,7
1617112286.5151443,12,12,12,12,12,12,8,8,8,8,8,8
1617112286.6109161,13,13,13,13,13,13,9,9,9,9,9,9
1617112286.704639,13,13,13,13,13,13,10,10,10,10,10,10
1617112286.8313,14,14,14,14,14,14,11,11,11,11,11,11
1617112286.9245782,15,15,15,15,15,15,12,12,12,12,12,12
1617112287.0136895,16,16,16,16,16,16,13,13,13,13,13,13
1617112287.1199677,17,17,17,17,17,17,14,14,14,14,14,14
1617112287.2167299,18,18,18,18,18,18,15,15,15,15,15,15
1617112287.307466,19,19,19,19,19,19,15,15,15,15,15,15
1617112287.4151769,20,20,20,20,20,20,16,16,16,16,16,16
1617112287.5129163,21,21,21,21,21,21,17,17,17,17,17,17
1617112287.6016793,22,22,22,22,22,22,18,18,18,18,18,18
1617112287.7114103,22,22,22,22,22,22,19,19,19,19,19,19
1617112287.7971573,23,23,23,23,23,23,20,20,20,20,20,20
1617112287.8998835,24,24,24,24,24,24,21,21,21,21,21,21
1617112287.9876554,25,25,25,25,25,25,22,22,22,22,22,22
1617112288.0814052,26,26,26,26,26,26,23,23,23,23,23,23
1617112288.1761823,26,26,26,26,26,26,23,23,23,23,23,23
1617112288.282867,27,27,27,27,27,27,24,24,24,24,24,24
1617112288.3915753,28,28,28,28,28,28,25,25,25,25,25,25
1617112288.4858885,29,29,29,29,29,29,26,26,26,26,26,26
1617112288.6011446,30,30,30,30,30,30,27,27,27,27,27,27
1617112288.6909046,31,31,31,31,31,31,28,28,28,28,28,28
1617112288.789668,32,32,32,32,32,32,29,29,29,29,29,29
1617112288.8993473,33,33,33,33,33,33,30,30,30,30,30,30
1617112288.992666,34,34,34,34,34,34,31,31,31,31,31,31
1617112289.0869877,35,35,35,35,35,35,31,31,31,31,31,31
1617112289.1777453,36,36,36,36,36,36,32,32,32,32,32,32
1617112289.2855542,37,37,37,37,37,37,33,33,33,33,33,33
1617112289.392821,37,37,37,37,37,37,34,34,34,34,34,34
1617112289.4989855,38,38,38,38,38,38,35,35,35,35,35,35
1617112289.6096606,39,39,39,39,39,39,36,36,36,36,36,36
1617112289.7024114,40,40,40,40,40,40,37,37,37,37,37,37
1617112289.8031762,41,41,41,41,41,41,38,38,38,38,38,38
1617112289.896953,42,42,42,42,42,42,39,39,39,39,39,39
1617112289.9992905,43,43,43,43,43,43,40,40,40,40,40,40
1617112290.100123,44,44,44,44,44,44,41,41,41,41,41,41
1617112290.2028723,44,44,44,44,44,44,41,41,41,41,41,41
1617112290.29762,45,45,45,45,45,45,42,42,42,42,42,42
1617112290.4053075,46,46,46,46,46,46,43,43,43,43,43,43
1617112290.50806,47,47,47,47,47,47,44,44,44,44,44,44
1617112290.6068275,48,48,48,48,48,48,45,45,45,45,45,45
1617112290.7204695,49,49,49,49,49,49,46,46,46,46,46,46
1617112290.838155,50,50,50,50,50,50,47,47,47,47,47,47
1617112290.9323123,51,51,51,51,51,51,48,48,48,48,48,48
1617112291.029029,52,52,52,52,52,52,49,49,49,49,49,49
1617112291.135148,53,53,53,53,53,53,50,50,50,50,50,50
1617112291.240867,54,54,54,54,54,54,51,51,51,51,51,51
1617112291.3316228,55,55,55,55,55,55,52,52,52,52,52,52
1617112291.4293616,56,56,56,56,56,56,53,53,53,53,53,53
1617112291.538072,57,57,57,57,57,57,54,54,54,54,54,54
1617112291.6348417,57,57,57,57,57,57,54,54,54,54,54,54
1617112291.7305565,58,58,58,58,58,58,55,55,55,55,55,55
1617112291.8263004,59,59,59,59,59,59,56,56,56,56,56,56
1617112291.939028,60,60,60,60,60,60,57,57,57,57,57,57
1617112292.0367699,61,61,61,61,61,61,58,58,58,58,58,58
1617112292.1350706,62,62,62,62,62,62,59,59,59,59,59,59
1617112292.2318118,63,63,63,63,63,63,60,60,60,60,60,60
1617112292.3396237,64,64,64,64,64,64,61,61,61,61,61,61
1617112292.434342,65,65,65,65,65,65,62,62,62,62,62,62
1617112292.526099,65,65,65,65,65,65,62,62,62,62,62,62
1617112292.6088781,66,66,66,66,66,66,63,63,63,63,63,63
1617112292.7176182,67,67,67,67,67,67,64,64,64,64,64,64
1617112292.8325028,68,68,68,68,68,68,65,65,65,65,65,65
1617112292.9268005,69,69,69,69,69,69,66,66,66,66,66,66
1617112293.0345132,70,70,70,70,70,70,67,67,67,67,67,67
1617112293.134305,70,70,70,70,70,70,67,67,67,67,67,67
1617112293.2380502,71,71,71,71,71,71,68,68,68,68,68,68
1617112293.34543,72,72,72,72,72,72,69,69,69,69,69,69
1617112293.449109,73,73,73,73,73,73,70,70,70,70,70,70
1617112293.540864,74,74,74,74,74,74,71,71,71,71,71,71
1617112293.637605,75,75,75,75,75,75,72,72,72,72,72,72
1617112293.7493184,76,76,76,76,76,76,73,73,73,73,73,73
1617112293.846087,77,77,77,77,77,77,74,74,74,74,74,74
1617112293.9388893,78,78,78,78,78,78,75,75,75,75,75,75
1617112294.0326788,79,79,79,79,79,79,76,76,76,76,76,76
1617112294.1452405,79,79,79,79,79,79,76,76,76,76,76,76
1617112294.2419827,80,80,80,80,80,80,77,77,77,77,77,77
1617112294.3412333,81,81,81,81,81,81,78,78,78,78,78,78
1617112294.4423518,82,82,82,82,82,82,79,79,79,79,79,79
1617112294.5495737,83,83,83,83,83,83,80,80,80,80,80,80
1617112294.6458805,84,84,84,84,84,84,81,81,81,81,81,81
1617112294.7396297,85,85,85,85,85,85,82,82,82,82,82,82
1617112294.8423839,86,86,86,86,86,86,83,83,83,83,83,83
1617112294.9490714,87,87,87,87,87,87,84,84,84,84,84,84
1617112295.0421965,87,87,87,87,87,87,84,84,84,84,84,84
1617112295.1353817,88,88,88,88,88,88,85,85,85,85,85,85
1617112295.227529,89,89,89,89,89,89,86,86,86,86,86,86
1617112295.3168037,90,90,90,90,90,90,87,87,87,87,87,87
1617112295.411551,91,91,91,91,91,91,88,88,88,88,88,88
1617112295.5192623,92,92,92,92,92,92,89,89,89,89,89,89
1617112295.6285188,93,93,93,93,93,93,90,90,90,90,90,90
1617112295.7397654,94,94,94,94,94,94,91,91,91,91,91,91
1617112295.8390374,95,95,95,95,95,95,92,92,92,92,92,92
1617112295.942226,95,95,95,95,95,95,92,92,92,92,92,92
1617112296.052929,96,96,96,96,96,96,93,93,93,93,93,93
1617112296.1576872,97,97,97,97,97,97,94,94,94,94,94,94
1617112296.270485,98,98,98,98,98,98,95,95,95,95,95,95
1617112296.3753502,99,99,99,99,99,99,96,96,96,96,96,96
1617112296.5810509,100,100,100,100,100,100,98,98,98,98,98,98
1617112296.6902966,101,101,101,101,101,101,99,99,99,99,99,99
1617112296.7980087,102,102,102,102,102,102,100,100,100,100,100,100
1617112296.9067426,103,103,103,103,103,103,101,101,101,101,101,101
1617112297.0169623,104,104,104,104,104,104,102,102,102,102,102,102
1617112297.124704,105,105,105,105,105,105,103,103,103,103,103,103
1617112297.2209868,106,106,106,106,106,106,104,104,104,104,104,104
1617112297.3134413,107,107,107,107,107,107,105,105,105,105,105,105
1617112297.4281373,108,108,108,108,108,108,106,106,106,106,106,106
1617112297.5248785,109,109,109,109,109,109,106,106,106,106,106,106
1617112297.6226165,110,110,110,110,110,110,107,107,107,107,107,107
1617112297.7292798,111,111,111,111,111,111,108,108,108,108,108,108
1617112297.82171,112,112,112,112,112,112,109,109,109,109,109,109
1617112297.9249449,113,113,113,113,113,113,110,110,110,110,110,110
1617112298.0196955,114,114,114,114,114,114,111,111,111,111,111,111
1617112298.1314967,115,115,115,115,115,115,112,112,112,112,112,112
1617112298.2222254,116,116,116,116,116,116,113,113,113,113,113,113
1617112298.3199923,116,116,116,116,116,116,113,113,113,113,113,113
1617112298.4141805,117,117,117,117,117,117,114,114,114,114,114,114
1617112298.5124557,118,118,118,118,118,118,115,115,115,115,115,115
1617112298.6125774,119,119,119,119,119,119,116,116,116,116,116,116
1617112298.7240877,120,120,120,120,120,120,117,117,117,117,117,117
1617112298.8322575,121,121,121,121,121,121,118,118,118,118,118,118
1617112298.9339857,122,122,122,122,122,122,119,119,119,119,119,119
1617112299.029238,123,123,123,123,123,123,120,120,120,120,120,120
1617112299.1229873,124,124,124,124,124,124,121,121,121,121,121,121
1617112299.2370682,125,125,125,125,125,125,122,122,122,122,122,122
1617112299.342209,126,126,126,126,126,126,123,123,123,123,123,123
1617112299.4449658,127,127,127,127,127,127,124,124,124,124,124,124
1617112299.547661,128,128,128,128,128,128,125,125,125,125,125,125
1617112299.6394157,128,128,128,128,128,128,125,125,125,125,125,125
1617112299.7670746,129,129,129,129,129,129,126,126,126,126,126,126
1617112299.8761263,130,130,130,130,130,130,127,127,127,127,127,127
1617112299.9708626,131,131,131,131,131,131,128,128,128,128,128,128
1617112300.069784,132,132,132,132,132,132,129,129,129,129,129,129
1617112300.1825216,133,133,133,133,133,133,130,130,130,130,130,130
1617112300.2968903,134,134,134,134,134,134,131,131,131,131,131,131
1617112300.4046082,135,135,135,135,135,135,132,132,132,132,132,132
1617112300.4987147,136,136,136,136,136,136,133,133,133,133,133,133
1617112300.5973222,137,137,137,137,137,137,134,134,134,134,134,134
1617112300.7026184,138,138,138,138,138,138,135,135,135,135,135,135
1617112300.807761,139,139,139,139,139,139,136,136,136,136,136,136
1617112300.9015417,140,140,140,140,140,140,137,137,137,137,137,137
1617112300.9898164,140,140,140,140,140,140,137,137,137,137,137,137
1617112301.0795758,141,141,141,141,141,141,138,138,138,138,138,138
1617112301.172328,142,142,142,142,142,142,139,139,139,139,139,139
1617112301.2671092,143,143,143,143,143,143,140,140,140,140,140,140
1617112301.3618455,144,144,144,144,144,144,141,141,141,141,141,141
1617112301.476539,145,145,145,145,145,145,142,142,142,142,142,142
1617112301.575364,146,146,146,146,146,146,143,143,143,143,143,143
1617112301.6681166,147,147,147,147,147,147,144,144,144,144,144,144
1617112301.7733188,148,148,148,148,148,148,145,145,145,145,145,145
1617112301.8666053,148,148,148,148,148,148,145,145,145,145,145,145
1617112301.9613802,149,149,149,149,149,149,146,146,146,146,146,146
1617112302.068661,150,150,150,150,150,150,147,147,147,147,147,147
1617112302.176964,151,151,151,151,151,151,148,148,148,148,148,148
1617112302.280017,152,152,152,152,152,152,149,149,149,149,149,149
1617112302.3967104,153,153,153,153,153,153,150,150,150,150,150,150
1617112302.5052252,154,154,154,154,154,154,151,151,151,151,151,151
1617112302.6086154,155,155,155,155,155,155,152,152,152,152,152,152
1617112302.7073507,156,156,156,156,156,156,153,153,153,153,153,153
1617112302.807814,157,157,157,157,157,157,154,154,154,154,154,154
1617112302.9215107,158,158,158,158,158,158,155,155,155,155,155,155
1617112303.0437276,159,159,159,159,159,159,156,156,156,156,156,156
1617112303.1424634,160,160,160,160,160,160,157,157,157,157,157,157
1617112303.2574992,161,161,161,161,161,161,158,158,158,158,158,158
1617112303.3652124,162,162,162,162,162,162,159,159,159,159,159,159
1617112303.4697564,163,163,163,163,163,163,160,160,160,160,160,160
1617112303.561851,164,164,164,164,164,164,161,161,161,161,161,161
1617112303.6725583,165,165,165,165,165,165,162,162,162,162,162,162
1617112303.7792718,166,166,166,166,166,166,163,163,163,163,163,163
1617112303.8726323,166,166,166,166,166,166,164,164,164,164,164,164
1617112303.9833357,167,167,167,167,167,167,165,165,165,165,165,165
1617112304.0990546,168,168,168,168,168,168,166,166,166,166,166,166
1617112304.213785,169,169,169,169,169,169,167,167,167,167,167,167
1617112304.3220985,170,170,170,170,170,170,168,168,168,168,168,168
1617112304.4237397,171,171,171,171,171,171,169,169,169,169,169,169
1617112304.5264657,172,172,172,172,172,172,170,170,170,170,170,170
1617112304.6292903,173,173,173,173,173,173,171,171,171,171,171,171
1617112304.7362862,174,174,174,174,174,174,172,172,172,172,172,172
1617112304.8470669,175,175,175,175,175,175,173,173,173,173,173,173
1617112304.953787,176,176,176,176,176,176,174,174,174,174,174,174
1617112305.0764549,177,177,177,177,177,177,175,175,175,175,175,175
1617112305.187158,178,178,178,178,178,178,176,176,176,176,176,176
1617112305.2858653,179,179,179,179,179,179,177,177,177,177,177,177
1617112305.3911483,180,180,180,180,180,180,178,178,178,178,178,178
1617112305.5023687,181,181,181,181,181,181,179,179,179,179,179,179
1617112305.6079876,182,182,182,182,182,182,180,180,180,180,180,180
1617112305.7087452,183,183,183,183,183,183,180,180,180,180,180,180
1617112305.8154607,184,184,184,184,184,184,181,181,181,181,181,181
1617112305.9249694,184,184,184,184,184,184,182,182,182,182,182,182
