timestamp,roll,pitch,yaw,pressure,oxygen,depth,2_roll,2_pitch,2_yaw,2_pressure,2_oxygen,2_depth
1617120237.1131873,168,168,168,168,168,168,108,108,108,108,108,108
1617120237.1770453,168,168,168,168,168,168,108,108,108,108,108,108
1617120237.2418714,167,167,167,167,167,167,108,108,108,108,108,108
1617120237.3206332,166,166,166,166,166,166,109,109,109,109,109,109
1617120237.3854961,166,166,166,166,166,166,109,109,109,109,109,109
1617120237.4492903,165,165,165,165,165,165,109,109,109,109,109,109
1617120237.5113518,164,164,164,164,164,164,110,110,110,110,110,110
1617120237.5762086,164,164,164,164,164,164,110,110,110,110,110,110
1617120237.64289,163,163,163,163,163,163,110,110,110,110,110,110
1617120237.721711,162,162,162,162,162,162,111,111,111,111,111,111
1617120237.7865083,162,162,162,162,162,162,111,111,111,111,111,111
1617120237.8528957,161,161,161,161,161,161,111,111,111,111,111,111
1617120237.9127767,161,161,161,161,161,161,111,111,111,111,111,111
1617120237.9775624,160,160,160,160,160,160,112,112,112,112,112,112
1617120238.0543883,159,159,159,159,159,159,112,112,112,112,112,112
1617120238.119862,159,159,159,159,159,159,113,113,113,113,113,113
1617120238.1836138,158,158,158,158,158,158,113,113,113,113,113,113
1617120238.2484648,157,157,157,157,157,157,113,113,113,113,113,113
1617120238.3133204,157,157,157,157,157,157,113,113,113,113,113,113
1617120238.3786547,156,156,156,156,156,156,114,114,114,114,114,114
1617120238.4564157,155,155,155,155,155,155,114,114,114,114,114,114
1617120238.520274,155,155,155,155,155,155,115,115,115,115,115,115
1617120238.5841022,154,154,154,154,154,154,115,115,115,115,115,115
1617120238.6489031,154,154,154,154,154,154,115,115,115,115,115,115
1617120238.7119129,153,153,153,153,153,153,115,115,115,115,115,115
1617120238.7934911,152,152,152,152,152,152,116,116,116,116,116,116
1617120238.8562727,152,152,152,152,152,152,116,116,116,116,116,116
1617120238.9211051,151,151,151,151,151,151,117,117,117,117,117,117
1617120238.9850857,150,150,150,150,150,150,117,117,117,117,117,117
1617120239.0489168,150,150,150,150,150,150,117,117,117,117,117,117
1617120239.1113944,149,149,149,149,149,149,117,117,117,117,117,117
1617120239.1909807,148,148,148,148,148,148,118,118,118,118,118,118
1617120239.258698,148,148,148,148,148,148,118,118,118,118,118,118
1617120239.3275135,147,147,147,147,147,147,119,119,119,119,119,119
1617120239.423299,146,146,146,146,146,146,119,119,119,119,119,119
1617120239.51791,145,145,145,145,145,145,119,119,119,119,119,119
1617120239.5917132,145,145,145,145,145,145,120,120,120,120,120,120
1617120239.6575084,144,144,144,144,144,144,120,120,120,120,120,120
1617120239.7229261,143,143,143,143,143,143,121,121,121,121,121,121
1617120239.7857282,143,143,143,143,143,143,121,121,121,121,121,121
1617120239.8506293,142,142,142,142,142,142,121,121,121,121,121,121
1617120239.9282246,141,141,141,141,141,141,122,122,122,122,122,122
1617120239.9930809,141,141,141,141,141,141,122,122,122,122,122,122
1617120240.0588758,140,140,140,140,140,140,122,122,122,122,122,122
1617120240.1203845,140,140,140,140,140,140,122,122,122,122,122,122
1617120240.1852124,139,139,139,139,139,139,123,123,123,123,123,123
1617120240.2550943,138,138,138,138,138,138,123,123,123,123,123,123
1617120240.3289216,137,137,137,137,137,137,124,124,124,124,124,124
1617120240.3935726,137,137,137,137,137,137,124,124,124,124,124,124
1617120240.4763527,136,136,136,136,136,136,124,124,124,124,124,124
1617120240.553146,136,136,136,136,136,136,125,125,125,125,125,125
1617120240.6170397,135,135,135,135,135,135,125,125,125,125,125,125
1617120240.6958292,134,134,134,134,134,134,125,125,125,125,125,125
1617120240.7616243,133,133,133,133,133,133,126,126,126,126,126,126
1617120240.8264518,133,133,133,133,133,133,126,126,126,126,126,126
1617120240.8893833,132,132,132,132,132,132,126,126,126,126,126,126
1617120240.9545293,132,132,132,132,132,132,127,127,127,127,127,127
1617120241.0333204,131,131,131,131,131,131,127,127,127,127,127,127
1617120241.1171548,130,130,130,130,130,130,127,127,127,127,127,127
1617120241.1931658,129,129,129,129,129,129,128,128,128,128,128,128
1617120241.2569966,129,129,129,129,129,129,128,128,128,128,128,128
1617120241.320826,128,128,128,128,128,128,128,128,128,128,128,128
1617120241.3984373,128,128,128,128,128,128,129,129,129,129,129,129
1617120241.46526,127,127,127,127,127,127,129,129,129,129,129,129
1617120241.5281055,126,126,126,126,126,126,129,129,129,129,129,129
1617120241.596907,126,126,126,126,126,126,130,130,130,130,130,130
1617120241.657745,125,125,125,125,125,125,130,130,130,130,130,130
1617120241.7385285,125,125,125,125,125,125,130,130,130,130,130,130
1617120241.8013606,124,124,124,124,124,124,131,131,131,131,131,131
1617120241.864192,123,123,123,123,123,123,131,131,131,131,131,131
1617120241.9290469,123,123,123,123,123,123,131,131,131,131,131,131
1617120241.993846,122,122,122,122,122,122,132,132,132,132,132,132
1617120242.0577116,121,121,121,121,121,121,132,132,132,132,132,132
1617120242.111532,121,121,121,121,121,121,132,132,132,132,132,132
1617120242.2013202,120,120,120,120,120,120,133,133,133,133,133,133
1617120242.2669294,119,119,119,119,119,119,133,133,133,133,133,133
1617120242.3317592,119,119,119,119,119,119,133,133,133,133,133,133
1617120242.3936062,118,118,118,118,118,118,134,134,134,134,134,134
1617120242.4748406,118,118,118,118,118,118,134,134,134,134,134,134
1617120242.5379214,117,117,117,117,117,117,134,134,134,134,134,134
1617120242.6027799,116,116,116,116,116,116,135,135,135,135,135,135
1617120242.6676164,116,116,116,116,116,116,135,135,135,135,135,135
1617120242.7304485,115,115,115,115,115,115,135,135,135,135,135,135
1617120242.8112323,114,114,114,114,114,114,136,136,136,136,136,136
1617120242.8740647,114,114,114,114,114,114,136,136,136,136,136,136
1617120242.9369247,113,113,113,113,113,113,136,136,136,136,136,136
1617120243.000818,113,113,113,113,113,113,137,137,137,137,137,137
1617120243.066574,112,112,112,112,112,112,137,137,137,137,137,137
1617120243.1486018,111,111,111,111,111,111,137,137,137,137,137,137
1617120243.2094033,111,111,111,111,111,111,138,138,138,138,138,138
1617120243.27423,110,110,110,110,110,110,138,138,138,138,138,138
1617120243.336662,109,109,109,109,109,109,138,138,138,138,138,138
1617120243.400493,109,109,109,109,109,109,138,138,138,138,138,138
1617120243.467315,108,108,108,108,108,108,139,139,139,139,139,139
1617120243.5226753,108,108,108,108,108,108,139,139,139,139,139,139
1617120243.5816088,107,107,107,107,107,107,139,139,139,139,139,139
1617120243.642448,106,106,106,106,106,106,140,140,140,140,140,140
1617120243.7044492,106,106,106,106,106,106,140,140,140,140,140,140
1617120243.7692769,105,105,105,105,105,105,140,140,140,140,140,140
1617120243.8322344,104,104,104,104,104,104,141,141,141,141,141,141
1617120243.911643,104,104,104,104,104,104,141,141,141,141,141,141
1617120243.9764702,103,103,103,103,103,103,141,141,141,141,141,141
1617120244.0417204,102,102,102,102,102,102,142,142,142,142,142,142
1617120244.106546,102,102,102,102,102,102,142,142,142,142,142,142
1617120244.2002966,101,101,101,101,101,101,142,142,142,142,142,142
1617120244.282105,100,100,100,100,100,100,143,143,143,143,143,143
1617120244.3469043,99,99,99,99,99,99,143,143,143,143,143,143
1617120244.408738,99,99,99,99,99,99,143,143,143,143,143,143
1617120244.4735644,98,98,98,98,98,98,144,144,144,144,144,144
1617120244.5367005,97,97,97,97,97,97,144,144,144,144,144,144
1617120244.601555,97,97,97,97,97,97,144,144,144,144,144,144
1617120244.678346,96,96,96,96,96,96,145,145,145,145,145,145
1617120244.7451446,95,95,95,95,95,95,145,145,145,145,145,145
1617120244.808973,95,95,95,95,95,95,145,145,145,145,145,145
1617120244.8728023,94,94,94,94,94,94,146,146,146,146,146,146
1617120244.9427168,94,94,94,94,94,94,146,146,146,146,146,146
1617120245.0215342,93,93,93,93,93,93,146,146,146,146,146,146
1617120245.1002965,92,92,92,92,92,92,147,147,147,147,147,147
1617120245.1731951,91,91,91,91,91,91,147,147,147,147,147,147
1617120245.241015,90,90,90,90,90,90,148,148,148,148,148,148
1617120245.3038807,90,90,90,90,90,90,148,148,148,148,148,148
1617120245.3843315,89,89,89,89,89,89,148,148,148,148,148,148
1617120245.449593,89,89,89,89,89,89,149,149,149,149,149,149
1617120245.5124722,88,88,88,88,88,88,149,149,149,149,149,149
1617120245.57793,87,87,87,87,87,87,149,149,149,149,149,149
1617120245.641787,87,87,87,87,87,87,150,150,150,150,150,150
1617120245.7055895,86,86,86,86,86,86,150,150,150,150,150,150
1617120245.784543,86,86,86,86,86,86,150,150,150,150,150,150
1617120245.8499491,85,85,85,85,85,85,151,151,151,151,151,151
1617120245.913808,84,84,84,84,84,84,151,151,151,151,151,151
1617120245.9766104,84,84,84,84,84,84,151,151,151,151,151,151
1617120246.0404687,83,83,83,83,83,83,151,151,151,151,151,151
1617120246.1182323,83,83,83,83,83,83,152,152,152,152,152,152
1617120246.1870482,82,82,82,82,82,82,152,152,152,152,152,152
1617120246.2815228,81,81,81,81,81,81,153,153,153,153,153,153
1617120246.3455014,80,80,80,80,80,80,153,153,153,153,153,153
1617120246.4095683,80,80,80,80,80,80,153,153,153,153,153,153
1617120246.489035,79,79,79,79,79,79,154,154,154,154,154,154
1617120246.5524025,78,78,78,78,78,78,154,154,154,154,154,154
1617120246.6162326,78,78,78,78,78,78,154,154,154,154,154,154
1617120246.682027,77,77,77,77,77,77,155,155,155,155,155,155
1617120246.744859,77,77,77,77,77,77,155,155,155,155,155,155
1617120246.8116806,76,76,76,76,76,76,155,155,155,155,155,155
1617120246.89047,76,76,76,76,76,76,156,156,156,156,156,156
1617120246.9524477,75,75,75,75,75,75,156,156,156,156,156,156
1617120247.0162787,74,74,74,74,74,74,156,156,156,156,156,156
1617120247.0825546,74,74,74,74,74,74,157,157,157,157,157,157
1617120247.1464145,73,73,73,73,73,73,157,157,157,157,157,157
1617120247.226172,72,72,72,72,72,72,157,157,157,157,157,157
1617120247.290001,72,72,72,72,72,72,157,157,157,157,157,157
1617120247.3526452,71,71,71,71,71,71,158,158,158,158,158,158
1617120247.4176831,71,71,71,71,71,71,158,158,158,158,158,158
1617120247.4819973,70,70,70,70,70,70,158,158,158,158,158,158
1617120247.5474782,70,70,70,70,70,70,159,159,159,159,159,159
1617120247.6172931,69,69,69,69,69,69,159,159,159,159,159,159
1617120247.6889873,68,68,68,68,68,68,159,159,159,159,159,159
1617120247.7548113,68,68,68,68,68,68,160,160,160,160,160,160
1617120247.8166459,67,67,67,67,67,67,160,160,160,160,160,160
1617120247.8820322,66,66,66,66,66,66,160,160,160,160,160,160
1617120247.9578307,66,66,66,66,66,66,161,161,161,161,161,161
1617120248.027645,65,65,65,65,65,65,161,161,161,161,161,161
1617120248.0894792,64,64,64,64,64,64,161,161,161,161,161,161
1617120248.1543055,64,64,64,64,64,64,162,162,162,162,162,162
1617120248.2193618,63,63,63,63,63,63,162,162,162,162,162,162
1617120248.2817183,62,62,62,62,62,62,162,162,162,162,162,162
1617120248.362474,62,62,62,62,62,62,163,163,163,163,163,163
1617120248.4272983,61,61,61,61,61,61,163,163,163,163,163,163
1617120248.4881647,61,61,61,61,61,61,163,163,163,163,163,163
1617120248.5539598,60,60,60,60,60,60,164,164,164,164,164,164
1617120248.6168358,59,59,59,59,59,59,164,164,164,164,164,164
1617120248.6956563,59,59,59,59,59,59,164,164,164,164,164,164
1617120248.75749,58,58,58,58,58,58,165,165,165,165,165,165
1617120248.827275,57,57,57,57,57,57,165,165,165,165,165,165
1617120248.8889594,57,57,57,57,57,57,165,165,165,165,165,165
1617120248.9527905,56,56,56,56,56,56,166,166,166,166,166,166
1617120249.0160673,56,56,56,56,56,56,166,166,166,166,166,166
1617120249.0980387,55,55,55,55,55,55,166,166,166,166,166,166
1617120249.16087,54,54,54,54,54,54,167,167,167,167,167,167
1617120249.228661,54,54,54,54,54,54,167,167,167,167,167,167
1617120249.2929938,53,53,53,53,53,53,167,167,167,167,167,167
1617120249.3568242,52,52,52,52,52,52,168,168,168,168,168,168
1617120249.433618,52,52,52,52,52,52,168,168,168,168,168,168
1617120249.5054545,51,51,51,51,51,51,168,168,168,168,168,168
1617120249.5632715,50,50,50,50,50,50,169,169,169,169,169,169
1617120249.625702,50,50,50,50,50,50,169,169,169,169,169,169
1617120249.6910813,49,49,49,49,49,49,169,169,169,169,169,169
1617120249.754911,49,49,49,49,49,49,170,170,170,170,170,170
1617120249.834697,48,48,48,48,48,48,170,170,170,170,170,170
1617120249.9125178,47,47,47,47,47,47,170,170,170,170,170,170
1617120249.992687,46,46,46,46,46,46,171,171,171,171,171,171
1617120250.0559418,46,46,46,46,46,46,171,171,171,171,171,171
1617120250.1197653,45,45,45,45,45,45,171,171,171,171,171,171
1617120250.170629,44,44,44,44,44,44,172,172,172,172,172,172
1617120250.2653475,43,43,43,43,43,43,172,172,172,172,172,172
1617120250.3282304,43,43,43,43,43,43,172,172,172,172,172,172
1617120250.3942244,42,42,42,42,42,42,173,173,173,173,173,173
1617120250.4570277,42,42,42,42,42,42,173,173,173,173,173,173
1617120250.5368426,41,41,41,41,41,41,173,173,173,173,173,173
1617120250.6022027,40,40,40,40,40,40,174,174,174,174,174,174
1617120250.6650622,39,39,39,39,39,39,174,174,174,174,174,174
1617120250.7308576,39,39,39,39,39,39,174,174,174,174,174,174
1617120250.7937262,38,38,38,38,38,38,175,175,175,175,175,175
1617120250.8580015,38,38,38,38,38,38,175,175,175,175,175,175
1617120250.9457364,37,37,37,37,37,37,175,175,175,175,175,175
1617120251.0005898,36,36,36,36,36,36,176,176,176,176,176,176
1617120251.0673354,36,36,36,36,36,36,176,176,176,176,176,176
1617120251.1311665,35,35,35,35,35,35,176,176,176,176,176,176
1617120251.1939986,34,34,34,34,34,34,177,177,177,177,177,177
1617120251.270794,34,34,34,34,34,34,177,177,177,177,177,177
1617120251.3376157,33,33,33,33,33,33,177,177,177,177,177,177
1617120251.401445,33,33,33,33,33,33,178,178,178,178,178,178
1617120251.4701903,32,32,32,32,32,32,178,178,178,178,178,178
1617120251.5619454,31,31,31,31,31,31,178,178,178,178,178,178
1617120251.64176,30,30,30,30,30,30,179,179,179,179,179,179
1617120251.7045934,30,30,30,30,30,30,179,179,179,179,179,179
1617120251.7722096,29,29,29,29,29,29,180,180,180,180,180,180
1617120251.8340461,29,29,29,29,29,29,180,180,180,180,180,180
1617120251.9128675,28,28,28,28,28,28,180,180,180,180,180,180
1617120251.975693,27,27,27,27,27,27,181,181,181,181,181,181
1617120252.0414913,27,27,27,27,27,27,181,181,181,181,181,181
1617120252.1033545,26,26,26,26,26,26,181,181,181,181,181,181
1617120252.1700351,25,25,25,25,25,25,182,182,182,182,182,182
1617120252.2668982,24,24,24,24,24,24,182,182,182,182,182,182
1617120252.3446925,24,24,24,24,24,24,182,182,182,182,182,182
1617120252.408551,23,23,23,23,23,23,183,183,183,183,183,183
1617120252.4743457,22,22,22,22,22,22,183,183,183,183,183,183
1617120252.5371778,22,22,22,22,22,22,183,183,183,183,183,183
1617120252.6039991,21,21,21,21,21,21,184,184,184,184,184,184
1617120252.6657035,21,21,21,21,21,21,184,184,184,184,184,184
1617120252.7454607,20,20,20,20,20,20,184,184,184,184,184,184
1617120252.810288,19,19,19,19,19,19,185,185,185,185,185,185
1617120252.8674438,19,19,19,19,19,19,185,185,185,185,185,185
1617120252.946233,18,18,18,18,18,18,185,185,185,185,185,185
1617120253.003457,17,17,17,17,17,17,186,186,186,186,186,186
1617120253.0693107,17,17,17,17,17,17,186,186,186,186,186,186
1617120253.1452422,16,16,16,16,16,16,186,186,186,186,186,186
1617120253.2090716,16,16,16,16,16,16,187,187,187,187,187,187
1617120253.2728705,15,15,15,15,15,15,187,187,187,187,187,187
1617120253.336731,15,15,15,15,15,15,187,187,187,187,187,187
1617120253.4031756,14,14,14,14,14,14,188,188,188,188,188,188
1617120253.4775524,13,13,13,13,13,13,188,188,188,188,188,188
1617120253.546325,13,13,13,13,13,13,188,188,188,188,188,188
1617120253.6091058,12,12,12,12,12,12,189,189,189,189,189,189
1617120253.6739335,12,12,12,12,12,12,189,189,189,189,189,189
1617120253.7375305,11,11,11,11,11,11,189,189,189,189,189,189
1617120253.8187218,10,10,10,10,10,10,190,190,190,190,190,190
1617120253.8825545,10,10,10,10,10,10,190,190,190,190,190,190
1617120253.9463828,9,9,9,9,9,9,190,190,190,190,190,190
1617120254.0102122,9,9,9,9,9,9,190,190,190,190,190,190
1617120254.0740414,8,8,8,8,8,8,191,191,191,191,191,191
1617120254.1378703,8,8,8,8,8,8,191,191,191,191,191,191
1617120254.2186806,7,7,7,7,7,7,191,191,191,191,191,191
1617120254.2815456,6,6,6,6,6,6,192,192,192,192,192,192
1617120254.345344,6,6,6,6,6,6,192,192,192,192,192,192
1617120254.4102414,5,5,5,5,5,5,192,192,192,192,192,192
1617120254.4732192,4,4,4,4,4,4,193,193,193,193,193,193
1617120254.5555565,4,4,4,4,4,4,193,193,193,193,193,193
1617120254.6174223,3,3,3,3,3,3,193,193,193,193,193,193
1617120254.6812434,2,2,2,2,2,2,194,194,194,194,194,194
1617120254.7460468,2,2,2,2,2,2,194,194,194,194,194,194
1617120254.8089104,1,1,1,1,1,1,194,194,194,194,194,194
1617120254.8737335,0,0,0,0,0,0,195,195,195,195,195,195
1617120254.9534924,0,0,0,0,0,0,195,195,195,195,195,195
1617120255.0193162,1,1,1,1,1,1,195,195,195,195,195,195
1617120255.0817997,2,2,2,2,2,2,196,196,196,196,196,196
1617120255.145663,2,2,2,2,2,2,196,196,196,196,196,196
1617120255.208491,3,3,3,3,3,3,196,196,196,196,196,196
1617120255.2892468,4,4,4,4,4,4,197,197,197,197,197,197
1617120255.3540735,4,4,4,4,4,4,197,197,197,197,197,197
1617120255.4169433,5,5,5,5,5,5,197,197,197,197,197,197
1617120255.4818912,6,6,6,6,6,6,198,198,198,198,198,198
1617120255.5457509,6,6,6,6,6,6,198,198,198,198,198,198
1617120255.609087,7,7,7,7,7,7,198,198,198,198,198,198
1617120255.689423,7,7,7,7,7,7,199,199,199,199,199,199
1617120255.7542489,8,8,8,8,8,8,199,199,199,199,199,199
1617120255.8163,9,9,9,9,9,9,199,199,199,199,199,199
1617120255.881138,9,9,9,9,9,9,200,200,200,200,200,200
1617120255.9479604,10,10,10,10,10,10,200,200,200,200,200,200
1617120256.024707,10,10,10,10,10,10,200,200,200,200,200,200
1617120256.0940275,11,11,11,11,11,11,201,201,201,201,201,201
1617120256.1553764,12,12,12,12,12,12,201,201,201,201,201,201
1617120256.2501361,13,13,13,13,13,13,201,201,201,201,201,201
1617120256.3136394,13,13,13,13,13,13,200,200,200,200,200,200
1617120256.3933754,14,14,14,14,14,14,200,200,200,200,200,200
1617120256.4572346,14,14,14,14,14,14,200,200,200,200,200,200
1617120256.5210624,15,15,15,15,15,15,199,199,199,199,199,199
1617120256.5868585,16,16,16,16,16,16,199,199,199,199,199,199
1617120256.6497216,16,16,16,16,16,16,199,199,199,199,199,199
1617120256.7134988,17,17,17,17,17,17,198,198,198,198,198,198
1617120256.7873006,18,18,18,18,18,18,198,198,198,198,198,198
1617120256.843228,18,18,18,18,18,18,198,198,198,198,198,198
1617120256.9050834,19,19,19,19,19,19,197,197,197,197,197,197
1617120256.9858491,19,19,19,19,19,19,197,197,197,197,197,197
1617120257.0698555,20,20,20,20,20,20,197,197,197,197,197,197
1617120257.1316934,21,21,21,21,21,21,196,196,196,196,196,196
1617120257.1925213,21,21,21,21,21,21,196,196,196,196,196,196
1617120257.2589107,22,22,22,22,22,22,196,196,196,196,196,196
1617120257.3206522,22,22,22,22,22,22,195,195,195,195,195,195
1617120257.384864,23,23,23,23,23,23,195,195,195,195,195,195
1617120257.4512446,24,24,24,24,24,24,195,195,195,195,195,195
1617120257.5285475,24,24,24,24,24,24,194,194,194,194,194,194
1617120257.5972872,25,25,25,25,25,25,194,194,194,194,194,194
1617120257.6566827,25,25,25,25,25,25,194,194,194,194,194,194
1617120257.7225165,26,26,26,26,26,26,193,193,193,193,193,193
1617120257.7883682,27,27,27,27,27,27,193,193,193,193,193,193
1617120257.8651323,27,27,27,27,27,27,193,193,193,193,193,193
1617120257.9279647,28,28,28,28,28,28,192,192,192,192,192,192
1617120257.9928215,28,28,28,28,28,28,192,192,192,192,192,192
1617120258.057065,29,29,29,29,29,29,192,192,192,192,192,192
1617120258.122889,29,29,29,29,29,29,191,191,191,191,191,191
1617120258.225615,30,30,30,30,30,30,191,191,191,191,191,191
1617120258.30344,31,31,31,31,31,31,191,191,191,191,191,191
1617120258.3612516,32,32,32,32,32,32,190,190,190,190,190,190
1617120258.424974,32,32,32,32,32,32,190,190,190,190,190,190
1617120258.4907994,33,33,33,33,33,33,190,190,190,190,190,190
1617120258.5556521,33,33,33,33,33,33,189,189,189,189,189,189
1617120258.631957,34,34,34,34,34,34,189,189,189,189,189,189
1617120258.7107475,35,35,35,35,35,35,189,189,189,189,189,189
1617120258.793232,35,35,35,35,35,35,188,188,188,188,188,188
1617120258.8557537,36,36,36,36,36,36,188,188,188,188,188,188
1617120258.913831,37,37,37,37,37,37,188,188,188,188,188,188
1617120258.9723566,37,37,37,37,37,37,188,188,188,188,188,188
1617120259.0357559,38,38,38,38,38,38,187,187,187,187,187,187
1617120259.116575,39,39,39,39,39,39,187,187,187,187,187,187
1617120259.1933622,39,39,39,39,39,39,186,186,186,186,186,186
1617120259.25816,40,40,40,40,40,40,186,186,186,186,186,186
1617120259.3339868,41,41,41,41,41,41,186,186,186,186,186,186
1617120259.4027743,41,41,41,41,41,41,185,185,185,185,185,185
1617120259.4671445,42,42,42,42,42,42,185,185,185,185,185,185
1617120259.5609198,43,43,43,43,43,43,185,185,185,185,185,185
1617120259.6257477,43,43,43,43,43,43,184,184,184,184,184,184
1617120259.7065022,44,44,44,44,44,44,184,184,184,184,184,184
1617120259.7700298,45,45,45,45,45,45,184,184,184,184,184,184
1617120259.8349788,45,45,45,45,45,45,183,183,183,183,183,183
1617120259.9157393,46,46,46,46,46,46,183,183,183,183,183,183
1617120259.9943316,47,47,47,47,47,47,182,182,182,182,182,182
1617120260.0712094,48,48,48,48,48,48,182,182,182,182,182,182
1617120260.1340435,48,48,48,48,48,48,182,182,182,182,182,182
1617120260.2011876,49,49,49,49,49,49,181,181,181,181,181,181
1617120260.2660153,50,50,50,50,50,50,181,181,181,181,181,181
1617120260.329845,50,50,50,50,50,50,181,181,181,181,181,181
1617120260.4087365,51,51,51,51,51,51,180,180,180,180,180,180
1617120260.4745607,52,52,52,52,52,52,180,180,180,180,180,180
1617120260.5383902,52,52,52,52,52,52,180,180,180,180,180,180
1617120260.6012216,53,53,53,53,53,53,179,179,179,179,179,179
1617120260.6661024,53,53,53,53,53,53,179,179,179,179,179,179
1617120260.7306159,54,54,54,54,54,54,179,179,179,179,179,179
1617120260.811166,55,55,55,55,55,55,178,178,178,178,178,178
1617120260.9059124,56,56,56,56,56,56,178,178,178,178,178,178
1617120260.9707384,56,56,56,56,56,56,178,178,178,178,178,178
1617120261.0340636,57,57,57,57,57,57,177,177,177,177,177,177
1617120261.1158748,58,58,58,58,58,58,177,177,177,177,177,177
1617120261.1786783,58,58,58,58,58,58,177,177,177,177,177,177
1617120261.243505,59,59,59,59,59,59,176,176,176,176,176,176
1617120261.3054972,60,60,60,60,60,60,176,176,176,176,176,176
1617120261.369326,60,60,60,60,60,60,176,176,176,176,176,176
1617120261.4351501,61,61,61,61,61,61,175,175,175,175,175,175
1617120261.507023,61,61,61,61,61,61,175,175,175,175,175,175
1617120261.5772765,62,62,62,62,62,62,175,175,175,175,175,175
1617120261.6421046,63,63,63,63,63,63,174,174,174,174,174,174
1617120261.7054217,63,63,63,63,63,63,174,174,174,174,174,174
1617120261.7712755,64,64,64,64,64,64,174,174,174,174,174,174
1617120261.8342354,64,64,64,64,64,64,174,174,174,174,174,174
1617120261.9118717,65,65,65,65,65,65,173,173,173,173,173,173
1617120261.9776967,66,66,66,66,66,66,173,173,173,173,173,173
1617120262.041526,66,66,66,66,66,66,172,172,172,172,172,172
1617120262.1073942,67,67,67,67,67,67,172,172,172,172,172,172
1617120262.1682613,67,67,67,67,67,67,172,172,172,172,172,172
1617120262.2410386,68,68,68,68,68,68,171,171,171,171,171,171
1617120262.3133225,69,69,69,69,69,69,171,171,171,171,171,171
1617120262.378151,69,69,69,69,69,69,171,171,171,171,171,171
1617120262.4400136,70,70,70,70,70,70,170,170,170,170,170,170
1617120262.505852,71,71,71,71,71,71,170,170,170,170,170,170
1617120262.5686686,71,71,71,71,71,71,170,170,170,170,170,170
1617120262.6265147,72,72,72,72,72,72,170,170,170,170,170,170
1617120262.7114258,73,73,73,73,73,73,169,169,169,169,169,169
1617120262.7881844,73,73,73,73,73,73,169,169,169,169,169,169
1617120262.8450322,74,74,74,74,74,74,168,168,168,168,168,168
1617120262.911407,74,74,74,74,74,74,168,168,168,168,168,168
1617120262.9861982,75,75,75,75,75,75,168,168,168,168,168,168
1617120263.0520225,76,76,76,76,76,76,167,167,167,167,167,167
1617120263.113857,77,77,77,77,77,77,167,167,167,167,167,167
1617120263.1766891,77,77,77,77,77,77,167,167,167,167,167,167
1617120263.2402973,78,78,78,78,78,78,166,166,166,166,166,166
1617120263.3051236,78,78,78,78,78,78,166,166,166,166,166,166
1617120263.3799238,79,79,79,79,79,79,166,166,166,166,166,166
1617120263.448742,80,80,80,80,80,80,166,166,166,166,166,166
1617120263.5136714,81,81,81,81,81,81,165,165,165,165,165,165
1617120263.5768654,81,81,81,81,81,81,165,165,165,165,165,165
1617120263.6407967,82,82,82,82,82,82,165,165,165,165,165,165
1617120263.724601,83,83,83,83,83,83,164,164,164,164,164,164
1617120263.7844439,83,83,83,83,83,83,164,164,164,164,164,164
1617120263.850267,84,84,84,84,84,84,164,164,164,164,164,164
1617120263.913069,85,85,85,85,85,85,163,163,163,163,163,163
1617120263.978893,85,85,85,85,85,85,163,163,163,163,163,163
1617120264.0428495,86,86,86,86,86,86,163,163,163,163,163,163
1617120264.1167932,87,87,87,87,87,87,162,162,162,162,162,162
1617120264.178657,87,87,87,87,87,87,162,162,162,162,162,162
1617120264.2509394,88,88,88,88,88,88,162,162,162,162,162,162
1617120264.313338,88,88,88,88,88,88,162,162,162,162,162,162
1617120264.3778028,89,89,89,89,89,89,161,161,161,161,161,161
1617120264.4575894,89,89,89,89,89,89,161,161,161,161,161,161
1617120264.5214188,90,90,90,90,90,90,160,160,160,160,160,160
1617120264.5852478,91,91,91,91,91,91,160,160,160,160,160,160
1617120264.6502366,91,91,91,91,91,91,160,160,160,160,160,160
1617120264.7150652,92,92,92,92,92,92,160,160,160,160,160,160
1617120264.7788942,92,92,92,92,92,92,159,159,159,159,159,159
1617120264.8271668,93,93,93,93,93,93,159,159,159,159,159,159
1617120264.89,93,93,93,93,93,93,159,159,159,159,159,159
1617120264.9548266,94,94,94,94,94,94,158,158,158,158,158,158
1617120265.0186567,95,95,95,95,95,95,158,158,158,158,158,158
1617120265.0815163,95,95,95,95,95,95,158,158,158,158,158,158
1617120265.1483433,96,96,96,96,96,96,157,157,157,157,157,157
1617120265.2261014,97,97,97,97,97,97,157,157,157,157,157,157
1617120265.2912369,97,97,97,97,97,97,157,157,157,157,157,157
1617120265.3560643,98,98,98,98,98,98,156,156,156,156,156,156
1617120265.4169748,98,98,98,98,98,98,156,156,156,156,156,156
1617120265.4818456,99,99,99,99,99,99,156,156,156,156,156,156
1617120265.5536518,100,100,100,100,100,100,155,155,155,155,155,155
1617120265.6175268,100,100,100,100,100,100,155,155,155,155,155,155
1617120265.6892607,101,101,101,101,101,101,155,155,155,155,155,155
1617120265.7540803,102,102,102,102,102,102,154,154,154,154,154,154
1617120265.8188174,102,102,102,102,102,102,154,154,154,154,154,154
1617120265.8824384,103,103,103,103,103,103,154,154,154,154,154,154
1617120265.9608195,103,103,103,103,103,103,153,153,153,153,153,153
1617120266.0256176,104,104,104,104,104,104,153,153,153,153,153,153
1617120266.0914419,105,105,105,105,105,105,153,153,153,153,153,153
1617120266.154273,105,105,105,105,105,105,152,152,152,152,152,152
1617120266.2178752,106,106,106,106,106,106,152,152,152,152,152,152
1617120266.296623,106,106,106,106,106,106,152,152,152,152,152,152
1617120266.361452,107,107,107,107,107,107,152,152,152,152,152,152
1617120266.4262776,108,108,108,108,108,108,151,151,151,151,151,151
1617120266.4911332,108,108,108,108,108,108,151,151,151,151,151,151
1617120266.555954,109,109,109,109,109,109,151,151,151,151,151,151
1617120266.618813,109,109,109,109,109,109,150,150,150,150,150,150
1617120266.6986,110,110,110,110,110,110,150,150,150,150,150,150
1617120266.762649,111,111,111,111,111,111,150,150,150,150,150,150
1617120266.8254828,112,112,112,112,112,112,149,149,149,149,149,149
1617120266.8883462,112,112,112,112,112,112,149,149,149,149,149,149
1617120266.9543822,113,113,113,113,113,113,149,149,149,149,149,149
1617120267.0216463,113,113,113,113,113,113,148,148,148,148,148,148
1617120267.116965,114,114,114,114,114,114,148,148,148,148,148,148
1617120267.1917665,115,115,115,115,115,115,148,148,148,148,148,148
1617120267.2585697,116,116,116,116,116,116,147,147,147,147,147,147
1617120267.3224006,116,116,116,116,116,116,147,147,147,147,147,147
1617120267.402187,117,117,117,117,117,117,147,147,147,147,147,147
1617120267.465019,117,117,117,117,117,117,146,146,146,146,146,146
1617120267.5298483,118,118,118,118,118,118,146,146,146,146,146,146
1617120267.5946724,119,119,119,119,119,119,146,146,146,146,146,146
1617120267.6565917,119,119,119,119,119,119,145,145,145,145,145,145
1617120267.7250762,120,120,120,120,120,120,145,145,145,145,145,145
1617120267.8028975,120,120,120,120,120,120,145,145,145,145,145,145
1617120267.8666973,121,121,121,121,121,121,144,144,144,144,144,144
1617120267.9285324,122,122,122,122,122,122,144,144,144,144,144,144
1617120267.9933589,122,122,122,122,122,122,144,144,144,144,144,144
1617120268.0601804,123,123,123,123,123,123,143,143,143,143,143,143
1617120268.1331153,124,124,124,124,124,124,143,143,143,143,143,143
1617120268.2019315,124,124,124,124,124,124,143,143,143,143,143,143
1617120268.2652867,125,125,125,125,125,125,142,142,142,142,142,142
1617120268.3280883,126,126,126,126,126,126,142,142,142,142,142,142
1617120268.3945289,126,126,126,126,126,126,142,142,142,142,142,142
1617120268.4743154,127,127,127,127,127,127,141,141,141,141,141,141
1617120268.5511403,128,128,128,128,128,128,141,141,141,141,141,141
1617120268.609953,128,128,128,128,128,128,141,141,141,141,141,141
1617120268.680792,129,129,129,129,129,129,140,140,140,140,140,140
1617120268.738609,129,129,129,129,129,129,140,140,140,140,140,140
1617120268.7954867,130,130,130,130,130,130,140,140,140,140,140,140
1617120268.8752434,130,130,130,130,130,130,139,139,139,139,139,139
1617120268.9391081,131,131,131,131,131,131,139,139,139,139,139,139
1617120269.0029545,132,132,132,132,132,132,139,139,139,139,139,139
1617120269.0657344,132,132,132,132,132,132,138,138,138,138,138,138
1617120269.1295934,133,133,133,133,133,133,138,138,138,138,138,138
1617120269.21143,133,133,133,133,133,133,138,138,138,138,138,138
1617120269.2728126,134,134,134,134,134,134,137,137,137,137,137,137
1617120269.3386092,134,134,134,134,134,134,137,137,137,137,137,137
1617120269.4014695,135,135,135,135,135,135,137,137,137,137,137,137
1617120269.4677963,136,136,136,136,136,136,136,136,136,136,136,136
1617120269.5700586,137,137,137,137,137,137,136,136,136,136,136,136
1617120269.64084,137,137,137,137,137,137,136,136,136,136,136,136
1617120269.7066946,138,138,138,138,138,138,135,135,135,135,135,135
1617120269.7685425,139,139,139,139,139,139,135,135,135,135,135,135
1617120269.8327546,139,139,139,139,139,139,135,135,135,135,135,135
1617120269.915562,140,140,140,140,140,140,134,134,134,134,134,134
1617120269.9793909,141,141,141,141,141,141,134,134,134,134,134,134
1617120270.04138,141,141,141,141,141,141,134,134,134,134,134,134
1617120270.1061783,142,142,142,142,142,142,133,133,133,133,133,133
1617120270.1680138,142,142,142,142,142,142,133,133,133,133,133,133
1617120270.2328403,143,143,143,143,143,143,133,133,133,133,133,133
1617120270.32405,143,143,143,143,143,143,132,132,132,132,132,132
1617120270.3789034,144,144,144,144,144,144,132,132,132,132,132,132
1617120270.44017,145,145,145,145,145,145,132,132,132,132,132,132
1617120270.5060062,145,145,145,145,145,145,132,132,132,132,132,132
1617120270.5699723,146,146,146,146,146,146,131,131,131,131,131,131
1617120270.6338067,146,146,146,146,146,146,131,131,131,131,131,131
1617120270.7141829,147,147,147,147,147,147,131,131,131,131,131,131
1617120270.778979,148,148,148,148,148,148,130,130,130,130,130,130
1617120270.8413484,148,148,148,148,148,148,130,130,130,130,130,130
1617120270.907202,149,149,149,149,149,149,130,130,130,130,130,130
1617120270.9700043,150,150,150,150,150,150,129,129,129,129,129,129
1617120271.0468912,150,150,150,150,150,150,129,129,129,129,129,129
1617120271.1136205,151,151,151,151,151,151,129,129,129,129,129,129
1617120271.1774502,152,152,152,152,152,152,128,128,128,128,128,128
1617120271.243275,152,152,152,152,152,152,128,128,128,128,128,128
1617120271.3061059,153,153,153,153,153,153,128,128,128,128,128,128
1617120271.3689668,154,154,154,154,154,154,127,127,127,127,127,127
1617120271.4417734,154,154,154,154,154,154,127,127,127,127,127,127
1617120271.5155466,155,155,155,155,155,155,127,127,127,127,127,127
1617120271.578378,156,156,156,156,156,156,126,126,126,126,126,126
1617120271.642208,156,156,156,156,156,156,126,126,126,126,126,126
1617120271.7040417,157,157,157,157,157,157,126,126,126,126,126,126
1617120271.7838569,157,157,157,157,157,157,125,125,125,125,125,125
1617120271.847686,158,158,158,158,158,158,125,125,125,125,125,125
1617120271.9154768,159,159,159,159,159,159,125,125,125,125,125,125
1617120271.976256,159,159,159,159,159,159,124,124,124,124,124,124
1617120272.040617,160,160,160,160,160,160,124,124,124,124,124,124
1617120272.1064432,161,161,161,161,161,161,124,124,124,124,124,124
1617120272.1563094,161,161,161,161,161,161,123,123,123,123,123,123
1617120272.2182796,162,162,162,162,162,162,123,123,123,123,123,123
1617120272.283389,162,162,162,162,162,162,123,123,123,123,123,123
1617120272.3452573,163,163,163,163,163,163,122,122,122,122,122,122
1617120272.4100523,163,163,163,163,163,163,122,122,122,122,122,122
1617120272.474415,164,164,164,164,164,164,122,122,122,122,122,122
1617120272.5531747,165,165,165,165,165,165,121,121,121,121,121,121
1617120272.6189404,165,165,165,165,165,165,121,121,121,121,121,121
1617120272.6817741,166,166,166,166,166,166,121,121,121,121,121,121
1617120272.7466006,167,167,167,167,167,167,120,120,120,120,120,120
1617120272.8104303,167,167,167,167,167,167,120,120,120,120,120,120
1617120272.883235,168,168,168,168,168,168,120,120,120,120,120,120
1617120272.9550433,169,169,169,169,169,169,119,119,119,119,119,119
1617120273.0168397,169,169,169,169,169,169,119,119,119,119,119,119
