timestamp,roll,pitch,yaw,pressure,oxygen,depth,2_roll,2_pitch,2_yaw,2_pressure,2_oxygen,2_depth
1617120282.281219,146,146,146,146,146,146,74,74,74,74,74,74
1617120282.345052,146,146,146,146,146,146,74,74,74,74,74,74
1617120282.4268317,145,145,145,145,145,145,73,73,73,73,73,73
1617120282.4906611,144,144,144,144,144,144,73,73,73,73,73,73
1617120282.552496,144,144,144,144,144,144,73,73,73,73,73,73
1617120282.6189916,143,143,143,143,143,143,72,72,72,72,72,72
1617120282.6818237,142,142,142,142,142,142,72,72,72,72,72,72
1617120282.7456832,142,142,142,142,142,142,72,72,72,72,72,72
1617120282.7965176,141,141,141,141,141,141,71,71,71,71,71,71
1617120282.8579426,141,141,141,141,141,141,71,71,71,71,71,71
1617120282.9227705,140,140,140,140,140,140,71,71,71,71,71,71
1617120282.987206,139,139,139,139,139,139,70,70,70,70,70,70
1617120283.0496235,139,139,139,139,139,139,70,70,70,70,70,70
1617120283.1134808,138,138,138,138,138,138,70,70,70,70,70,70
1617120283.1952646,137,137,137,137,137,137,69,69,69,69,69,69
1617120283.257068,137,137,137,137,137,137,69,69,69,69,69,69
1617120283.3220403,136,136,136,136,136,136,69,69,69,69,69,69
1617120283.3868675,135,135,135,135,135,135,68,68,68,68,68,68
1617120283.4496992,135,135,135,135,135,135,68,68,68,68,68,68
1617120283.5307686,134,134,134,134,134,134,68,68,68,68,68,68
1617120283.598589,133,133,133,133,133,133,67,67,67,67,67,67
1617120283.6564353,133,133,133,133,133,133,67,67,67,67,67,67
1617120283.7275045,132,132,132,132,132,132,67,67,67,67,67,67
1617120283.7873733,131,131,131,131,131,131,66,66,66,66,66,66
1617120283.8518429,131,131,131,131,131,131,66,66,66,66,66,66
1617120283.9306817,130,130,130,130,130,130,66,66,66,66,66,66
1617120283.99451,129,129,129,129,129,129,65,65,65,65,65,65
1617120284.0603614,129,129,129,129,129,129,65,65,65,65,65,65
1617120284.122184,128,128,128,128,128,128,65,65,65,65,65,65
1617120284.1853435,128,128,128,128,128,128,64,64,64,64,64,64
1617120284.255933,127,127,127,127,127,127,64,64,64,64,64,64
1617120284.3298512,126,126,126,126,126,126,64,64,64,64,64,64
1617120284.3936517,126,126,126,126,126,126,63,63,63,63,63,63
1617120284.4605026,125,125,125,125,125,125,63,63,63,63,63,63
1617120284.5233054,124,124,124,124,124,124,63,63,63,63,63,63
1617120284.5881312,124,124,124,124,124,124,62,62,62,62,62,62
1617120284.6627624,123,123,123,123,123,123,62,62,62,62,62,62
1617120284.7310054,123,123,123,123,123,123,62,62,62,62,62,62
1617120284.7968307,122,122,122,122,122,122,61,61,61,61,61,61
1617120284.8576698,121,121,121,121,121,121,61,61,61,61,61,61
1617120284.922495,121,121,121,121,121,121,61,61,61,61,61,61
1617120285.0043178,120,120,120,120,120,120,60,60,60,60,60,60
1617120285.067951,119,119,119,119,119,119,60,60,60,60,60,60
1617120285.1307836,119,119,119,119,119,119,60,60,60,60,60,60
1617120285.1931248,118,118,118,118,118,118,59,59,59,59,59,59
1617120285.25798,118,118,118,118,118,118,59,59,59,59,59,59
1617120285.3237748,117,117,117,117,117,117,59,59,59,59,59,59
1617120285.403555,116,116,116,116,116,116,58,58,58,58,58,58
1617120285.466388,116,116,116,116,116,116,58,58,58,58,58,58
1617120285.5292501,115,115,115,115,115,115,58,58,58,58,58,58
1617120285.595462,115,115,115,115,115,115,57,57,57,57,57,57
1617120285.6582968,114,114,114,114,114,114,57,57,57,57,57,57
1617120285.7390091,113,113,113,113,113,113,57,57,57,57,57,57
1617120285.8018343,113,113,113,113,113,113,56,56,56,56,56,56
1617120285.8656356,112,112,112,112,112,112,56,56,56,56,56,56
1617120285.9304914,112,112,112,112,112,112,56,56,56,56,56,56
1617120285.9932938,111,111,111,111,111,111,55,55,55,55,55,55
1617120286.0581503,110,110,110,110,110,110,55,55,55,55,55,55
1617120286.1399012,110,110,110,110,110,110,55,55,55,55,55,55
1617120286.220671,109,109,109,109,109,109,54,54,54,54,54,54
1617120286.3056827,108,108,108,108,108,108,54,54,54,54,54,54
1617120286.3830328,107,107,107,107,107,107,54,54,54,54,54,54
1617120286.445859,107,107,107,107,107,107,53,53,53,53,53,53
1617120286.5086615,106,106,106,106,106,106,53,53,53,53,53,53
1617120286.5734882,105,105,105,105,105,105,53,53,53,53,53,53
1617120286.634326,105,105,105,105,105,105,52,52,52,52,52,52
1617120286.7232974,104,104,104,104,104,104,52,52,52,52,52,52
1617120286.7943645,103,103,103,103,103,103,52,52,52,52,52,52
1617120286.8741524,103,103,103,103,103,103,51,51,51,51,51,51
1617120286.9380116,102,102,102,102,102,102,51,51,51,51,51,51
1617120287.0024853,101,101,101,101,101,101,51,51,51,51,51,51
1617120287.0663414,101,101,101,101,101,101,50,50,50,50,50,50
1617120287.1301425,100,100,100,100,100,100,50,50,50,50,50,50
1617120287.2059684,100,100,100,100,100,100,50,50,50,50,50,50
1617120287.2750504,99,99,99,99,99,99,49,49,49,49,49,49
1617120287.33888,98,98,98,98,98,98,49,49,49,49,49,49
1617120287.401494,98,98,98,98,98,98,49,49,49,49,49,49
1617120287.4663236,97,97,97,97,97,97,48,48,48,48,48,48
1617120287.51921,97,97,97,97,97,97,48,48,48,48,48,48
1617120287.5771794,96,96,96,96,96,96,48,48,48,48,48,48
1617120287.6440017,96,96,96,96,96,96,47,47,47,47,47,47
1617120287.7053916,95,95,95,95,95,95,47,47,47,47,47,47
1617120287.7702186,94,94,94,94,94,94,47,47,47,47,47,47
1617120287.8350453,94,94,94,94,94,94,46,46,46,46,46,46
1617120287.9108508,93,93,93,93,93,93,46,46,46,46,46,46
1617120287.977982,92,92,92,92,92,92,46,46,46,46,46,46
1617120288.0438077,92,92,92,92,92,92,45,45,45,45,45,45
1617120288.1081731,91,91,91,91,91,91,45,45,45,45,45,45
1617120288.2049308,90,90,90,90,90,90,45,45,45,45,45,45
1617120288.267791,90,90,90,90,90,90,44,44,44,44,44,44
1617120288.3455832,89,89,89,89,89,89,44,44,44,44,44,44
1617120288.4113786,88,88,88,88,88,88,44,44,44,44,44,44
1617120288.4762335,88,88,88,88,88,88,43,43,43,43,43,43
1617120288.539066,87,87,87,87,87,87,43,43,43,43,43,43
1617120288.60187,87,87,87,87,87,87,43,43,43,43,43,43
1617120288.679525,86,86,86,86,86,86,42,42,42,42,42,42
1617120288.7462423,86,86,86,86,86,86,42,42,42,42,42,42
1617120288.8110697,85,85,85,85,85,85,42,42,42,42,42,42
1617120288.8748991,84,84,84,84,84,84,41,41,41,41,41,41
1617120288.9388864,84,84,84,84,84,84,41,41,41,41,41,41
1617120289.002715,83,83,83,83,83,83,41,41,41,41,41,41
1617120289.0824733,83,83,83,83,83,83,40,40,40,40,40,40
1617120289.146303,82,82,82,82,82,82,40,40,40,40,40,40
1617120289.2101333,81,81,81,81,81,81,40,40,40,40,40,40
1617120289.2739625,81,81,81,81,81,81,39,39,39,39,39,39
1617120289.339803,80,80,80,80,80,80,39,39,39,39,39,39
1617120289.412592,79,79,79,79,79,79,39,39,39,39,39,39
1617120289.4831693,79,79,79,79,79,79,38,38,38,38,38,38
1617120289.547021,78,78,78,78,78,78,38,38,38,38,38,38
1617120289.609853,77,77,77,77,77,77,38,38,38,38,38,38
1617120289.6755178,77,77,77,77,77,77,37,37,37,37,37,37
1617120289.7410557,76,76,76,76,76,76,37,37,37,37,37,37
1617120289.818662,75,75,75,75,75,75,37,37,37,37,37,37
1617120289.8824625,75,75,75,75,75,75,36,36,36,36,36,36
1617120289.946401,74,74,74,74,74,74,36,36,36,36,36,36
1617120290.011259,73,73,73,73,73,73,36,36,36,36,36,36
1617120290.076678,73,73,73,73,73,73,35,35,35,35,35,35
1617120290.1545007,72,72,72,72,72,72,35,35,35,35,35,35
1617120290.2202966,72,72,72,72,72,72,35,35,35,35,35,35
1617120290.28213,71,71,71,71,71,71,34,34,34,34,34,34
1617120290.3466282,70,70,70,70,70,70,34,34,34,34,34,34
1617120290.4106283,70,70,70,70,70,70,34,34,34,34,34,34
1617120290.48842,69,69,69,69,69,69,33,33,33,33,33,33
1617120290.5552127,69,69,69,69,69,69,33,33,33,33,33,33
1617120290.6190414,68,68,68,68,68,68,33,33,33,33,33,33
1617120290.682872,67,67,67,67,67,67,32,32,32,32,32,32
1617120290.7473676,67,67,67,67,67,67,32,32,32,32,32,32
1617120290.809233,66,66,66,66,66,66,32,32,32,32,32,32
1617120290.8650835,65,65,65,65,65,65,32,32,32,32,32,32
1617120290.9229002,65,65,65,65,65,65,31,31,31,31,31,31
1617120290.9867294,64,64,64,64,64,64,31,31,31,31,31,31
1617120291.052038,64,64,64,64,64,64,31,31,31,31,31,31
1617120291.1155853,63,63,63,63,63,63,30,30,30,30,30,30
1617120291.1793861,62,62,62,62,62,62,30,30,30,30,30,30
1617120291.2552128,62,62,62,62,62,62,30,30,30,30,30,30
1617120291.3240323,61,61,61,61,61,61,29,29,29,29,29,29
1617120291.3857,61,61,61,61,61,61,29,29,29,29,29,29
1617120291.4503818,60,60,60,60,60,60,29,29,29,29,29,29
1617120291.5142126,59,59,59,59,59,59,28,28,28,28,28,28
1617120291.595026,59,59,59,59,59,59,28,28,28,28,28,28
1617120291.6598232,58,58,58,58,58,58,28,28,28,28,28,28
1617120291.72465,57,57,57,57,57,57,27,27,27,27,27,27
1617120291.789013,57,57,57,57,57,57,27,27,27,27,27,27
1617120291.8518162,56,56,56,56,56,56,27,27,27,27,27,27
1617120291.914649,56,56,56,56,56,56,26,26,26,26,26,26
1617120291.99105,55,55,55,55,55,55,26,26,26,26,26,26
1617120292.058373,54,54,54,54,54,54,26,26,26,26,26,26
1617120292.109903,54,54,54,54,54,54,25,25,25,25,25,25
1617120292.1867275,53,53,53,53,53,53,25,25,25,25,25,25
1617120292.2515268,52,52,52,52,52,52,25,25,25,25,25,25
1617120292.319903,52,52,52,52,52,52,25,25,25,25,25,25
1617120292.398693,51,51,51,51,51,51,24,24,24,24,24,24
1617120292.4585326,51,51,51,51,51,51,24,24,24,24,24,24
1617120292.5224047,50,50,50,50,50,50,23,23,23,23,23,23
1617120292.5920558,49,49,49,49,49,49,23,23,23,23,23,23
1617120292.693815,49,49,49,49,49,49,23,23,23,23,23,23
1617120292.763234,48,48,48,48,48,48,22,22,22,22,22,22
1617120292.8207383,47,47,47,47,47,47,22,22,22,22,22,22
1617120292.891549,47,47,47,47,47,47,22,22,22,22,22,22
1617120292.9545178,46,46,46,46,46,46,21,21,21,21,21,21
1617120293.0181296,46,46,46,46,46,46,21,21,21,21,21,21
1617120293.0999115,45,45,45,45,45,45,21,21,21,21,21,21
1617120293.161553,44,44,44,44,44,44,20,20,20,20,20,20
1617120293.2283764,44,44,44,44,44,44,20,20,20,20,20,20
1617120293.289213,43,43,43,43,43,43,20,20,20,20,20,20
1617120293.3550372,42,42,42,42,42,42,19,19,19,19,19,19
1617120293.429313,42,42,42,42,42,42,19,19,19,19,19,19
1617120293.5070968,41,41,41,41,41,41,19,19,19,19,19,19
1617120293.5619502,41,41,41,41,41,41,18,18,18,18,18,18
1617120293.6257508,40,40,40,40,40,40,18,18,18,18,18,18
1617120293.6909134,39,39,39,39,39,39,18,18,18,18,18,18
1617120293.7567394,39,39,39,39,39,39,18,18,18,18,18,18
1617120293.8355281,38,38,38,38,38,38,17,17,17,17,17,17
1617120293.9123507,37,37,37,37,37,37,17,17,17,17,17,17
1617120293.9941344,37,37,37,37,37,37,16,16,16,16,16,16
1617120294.0828965,36,36,36,36,36,36,16,16,16,16,16,16
1617120294.1756542,35,35,35,35,35,35,15,15,15,15,15,15
1617120294.234714,35,35,35,35,35,35,15,15,15,15,15,15
1617120294.3170984,34,34,34,34,34,34,15,15,15,15,15,15
1617120294.3957672,33,33,33,33,33,33,14,14,14,14,14,14
1617120294.4585688,32,32,32,32,32,32,14,14,14,14,14,14
1617120294.5375342,32,32,32,32,32,32,14,14,14,14,14,14
1617120294.6043758,31,31,31,31,31,31,13,13,13,13,13,13
1617120294.6662014,31,31,31,31,31,31,13,13,13,13,13,13
1617120294.730589,30,30,30,30,30,30,13,13,13,13,13,13
1617120294.7944174,30,30,30,30,30,30,12,12,12,12,12,12
1617120294.8622496,29,29,29,29,29,29,12,12,12,12,12,12
1617120294.9290857,28,28,28,28,28,28,12,12,12,12,12,12
1617120295.0038576,28,28,28,28,28,28,11,11,11,11,11,11
1617120295.0656986,27,27,27,27,27,27,11,11,11,11,11,11
1617120295.1295512,26,26,26,26,26,26,11,11,11,11,11,11
1617120295.1960711,26,26,26,26,26,26,10,10,10,10,10,10
1617120295.2728653,25,25,25,25,25,25,10,10,10,10,10,10
1617120295.3386893,25,25,25,25,25,25,10,10,10,10,10,10
1617120295.4032228,24,24,24,24,24,24,9,9,9,9,9,9
1617120295.4670544,23,23,23,23,23,23,9,9,9,9,9,9
1617120295.5548189,23,23,23,23,23,23,9,9,9,9,9,9
1617120295.633608,22,22,22,22,22,22,8,8,8,8,8,8
1617120295.7084455,21,21,21,21,21,21,8,8,8,8,8,8
1617120295.767251,21,21,21,21,21,21,8,8,8,8,8,8
1617120295.8338583,20,20,20,20,20,20,7,7,7,7,7,7
1617120295.9127636,19,19,19,19,19,19,7,7,7,7,7,7
1617120295.9915502,18,18,18,18,18,18,7,7,7,7,7,7
1617120296.0523603,18,18,18,18,18,18,6,6,6,6,6,6
1617120296.13837,17,17,17,17,17,17,6,6,6,6,6,6
1617120296.2042105,16,16,16,16,16,16,6,6,6,6,6,6
1617120296.2670438,16,16,16,16,16,16,5,5,5,5,5,5
1617120296.3299081,15,15,15,15,15,15,5,5,5,5,5,5
1617120296.4126544,14,14,14,14,14,14,4,4,4,4,4,4
1617120296.475486,14,14,14,14,14,14,4,4,4,4,4,4
1617120296.5383456,13,13,13,13,13,13,4,4,4,4,4,4
1617120296.602176,12,12,12,12,12,12,4,4,4,4,4,4
1617120296.6659763,12,12,12,12,12,12,3,3,3,3,3,3
1617120296.7397783,11,11,11,11,11,11,3,3,3,3,3,3
1617120296.8116977,10,10,10,10,10,10,2,2,2,2,2,2
1617120296.8735628,10,10,10,10,10,10,2,2,2,2,2,2
1617120296.9393582,9,9,9,9,9,9,2,2,2,2,2,2
1617120297.002219,9,9,9,9,9,9,2,2,2,2,2,2
1617120297.0680425,8,8,8,8,8,8,1,1,1,1,1,1
1617120297.148798,7,7,7,7,7,7,1,1,1,1,1,1
1617120297.2096353,7,7,7,7,7,7,1,1,1,1,1,1
1617120297.2760243,6,6,6,6,6,6,0,0,0,0,0,0
1617120297.3368917,6,6,6,6,6,6,0,0,0,0,0,0
1617120297.4026864,5,5,5,5,5,5,0,0,0,0,0,0
1617120297.483284,4,4,4,4,4,4,1,1,1,1,1,1
1617120297.5799966,3,3,3,3,3,3,1,1,1,1,1,1
1617120297.6438265,3,3,3,3,3,3,2,2,2,2,2,2
1617120297.706686,2,2,2,2,2,2,2,2,2,2,2,2
1617120297.7713633,1,1,1,1,1,1,2,2,2,2,2,2
1617120297.8508842,1,1,1,1,1,1,3,3,3,3,3,3
1617120297.9133086,0,0,0,0,0,0,3,3,3,3,3,3
1617120298.0067503,1,1,1,1,1,1,3,3,3,3,3,3
1617120298.0625904,1,1,1,1,1,1,4,4,4,4,4,4
1617120298.140336,2,2,2,2,2,2,4,4,4,4,4,4
1617120298.2121756,3,3,3,3,3,3,4,4,4,4,4,4
1617120298.2849612,3,3,3,3,3,3,5,5,5,5,5,5
1617120298.3547766,4,4,4,4,4,4,5,5,5,5,5,5
1617120298.409659,5,5,5,5,5,5,5,5,5,5,5,5
1617120298.4754896,5,5,5,5,5,5,6,6,6,6,6,6
1617120298.5542712,6,6,6,6,6,6,6,6,6,6,6,6
1617120298.618231,6,6,6,6,6,6,6,6,6,6,6,6
1617120298.682033,7,7,7,7,7,7,7,7,7,7,7,7
1617120298.7468584,8,8,8,8,8,8,7,7,7,7,7,7
1617120298.8112526,8,8,8,8,8,8,7,7,7,7,7,7
1617120298.8770754,9,9,9,9,9,9,8,8,8,8,8,8
1617120298.9548674,9,9,9,9,9,9,8,8,8,8,8,8
1617120299.0196946,10,10,10,10,10,10,8,8,8,8,8,8
1617120299.0805607,11,11,11,11,11,11,8,8,8,8,8,8
1617120299.1473913,11,11,11,11,11,11,9,9,9,9,9,9
1617120299.2111845,12,12,12,12,12,12,9,9,9,9,9,9
1617120299.2870252,12,12,12,12,12,12,9,9,9,9,9,9
1617120299.354839,13,13,13,13,13,13,10,10,10,10,10,10
1617120299.4206657,14,14,14,14,14,14,10,10,10,10,10,10
1617120299.515886,15,15,15,15,15,15,10,10,10,10,10,10
1617120299.5787184,15,15,15,15,15,15,11,11,11,11,11,11
1617120299.6597211,16,16,16,16,16,16,11,11,11,11,11,11
1617120299.724549,17,17,17,17,17,17,12,12,12,12,12,12
1617120299.7883787,17,17,17,17,17,17,12,12,12,12,12,12
1617120299.85124,18,18,18,18,18,18,12,12,12,12,12,12
1617120299.9160378,19,19,19,19,19,19,12,12,12,12,12,12
1617120299.9793723,19,19,19,19,19,19,13,13,13,13,13,13
1617120300.052208,20,20,20,20,20,20,13,13,13,13,13,13
1617120300.1239018,21,21,21,21,21,21,13,13,13,13,13,13
1617120300.2187345,21,21,21,21,21,21,14,14,14,14,14,14
1617120300.2825654,22,22,22,22,22,22,14,14,14,14,14,14
1617120300.3474207,23,23,23,23,23,23,15,15,15,15,15,15
1617120300.426182,23,23,23,23,23,23,15,15,15,15,15,15
1617120300.4906244,24,24,24,24,24,24,15,15,15,15,15,15
1617120300.5554502,25,25,25,25,25,25,16,16,16,16,16,16
1617120300.6192513,25,25,25,25,25,25,16,16,16,16,16,16
1617120300.6820834,26,26,26,26,26,26,16,16,16,16,16,16
1617120300.7578795,27,27,27,27,27,27,17,17,17,17,17,17
1617120300.8273623,27,27,27,27,27,27,17,17,17,17,17,17
1617120300.891376,28,28,28,28,28,28,17,17,17,17,17,17
1617120300.9541383,29,29,29,29,29,29,18,18,18,18,18,18
1617120301.0199919,29,29,29,29,29,29,18,18,18,18,18,18
1617120301.0827959,30,30,30,30,30,30,18,18,18,18,18,18
1617120301.162612,31,31,31,31,31,31,19,19,19,19,19,19
1617120301.2274384,31,31,31,31,31,31,19,19,19,19,19,19
1617120301.2902713,32,32,32,32,32,32,19,19,19,19,19,19
1617120301.3549507,33,33,33,33,33,33,20,20,20,20,20,20
1617120301.4207737,33,33,33,33,33,33,20,20,20,20,20,20
1617120301.4976041,34,34,34,34,34,34,20,20,20,20,20,20
1617120301.5643895,35,35,35,35,35,35,21,21,21,21,21,21
1617120301.626224,35,35,35,35,35,35,21,21,21,21,21,21
1617120301.6906943,36,36,36,36,36,36,21,21,21,21,21,21
1617120301.7564642,37,37,37,37,37,37,22,22,22,22,22,22
1617120301.8182993,37,37,37,37,37,37,22,22,22,22,22,22
1617120301.8990827,38,38,38,38,38,38,22,22,22,22,22,22
1617120301.9621217,38,38,38,38,38,38,23,23,23,23,23,23
1617120302.02695,39,39,39,39,39,39,23,23,23,23,23,23
1617120302.0907788,40,40,40,40,40,40,23,23,23,23,23,23
1617120302.1556082,40,40,40,40,40,40,24,24,24,24,24,24
1617120302.2234542,41,41,41,41,41,41,24,24,24,24,24,24
1617120302.3032212,42,42,42,42,42,42,24,24,24,24,24,24
1617120302.3613675,42,42,42,42,42,42,25,25,25,25,25,25
1617120302.427193,43,43,43,43,43,43,25,25,25,25,25,25
1617120302.4900248,43,43,43,43,43,43,25,25,25,25,25,25
1617120302.5562541,44,44,44,44,44,44,26,26,26,26,26,26
1617120302.6310856,45,45,45,45,45,45,26,26,26,26,26,26
1617120302.7104976,45,45,45,45,45,45,26,26,26,26,26,26
1617120302.7952366,46,46,46,46,46,46,27,27,27,27,27,27
1617120302.860063,47,47,47,47,47,47,27,27,27,27,27,27
1617120302.923956,47,47,47,47,47,47,27,27,27,27,27,27
1617120303.0047696,48,48,48,48,48,48,28,28,28,28,28,28
1617120303.0675716,49,49,49,49,49,49,28,28,28,28,28,28
1617120303.130404,49,49,49,49,49,49,28,28,28,28,28,28
1617120303.1952307,50,50,50,50,50,50,29,29,29,29,29,29
1617120303.2583237,50,50,50,50,50,50,29,29,29,29,29,29
1617120303.3337185,51,51,51,51,51,51,29,29,29,29,29,29
1617120303.403533,52,52,52,52,52,52,30,30,30,30,30,30
1617120303.5077431,53,53,53,53,53,53,30,30,30,30,30,30
1617120303.5615623,53,53,53,53,53,53,30,30,30,30,30,30
1617120303.6283572,54,54,54,54,54,54,31,31,31,31,31,31
1617120303.7081418,55,55,55,55,55,55,31,31,31,31,31,31
1617120303.7702436,55,55,55,55,55,55,31,31,31,31,31,31
1617120303.8351028,56,56,56,56,56,56,32,32,32,32,32,32
1617120303.893913,56,56,56,56,56,56,32,32,32,32,32,32
1617120303.9527843,57,57,57,57,57,57,32,32,32,32,32,32
1617120304.0271263,58,58,58,58,58,58,33,33,33,33,33,33
1617120304.0784988,58,58,58,58,58,58,33,33,33,33,33,33
1617120304.1711383,59,59,59,59,59,59,33,33,33,33,33,33
1617120304.2389898,59,59,59,59,59,59,34,34,34,34,34,34
1617120304.2973099,60,60,60,60,60,60,34,34,34,34,34,34
1617120304.3611393,61,61,61,61,61,61,34,34,34,34,34,34
1617120304.4439473,61,61,61,61,61,61,35,35,35,35,35,35
1617120304.5057821,62,62,62,62,62,62,35,35,35,35,35,35
1617120304.5696118,62,62,62,62,62,62,35,35,35,35,35,35
1617120304.636403,63,63,63,63,63,63,36,36,36,36,36,36
1617120304.7076209,64,64,64,64,64,64,36,36,36,36,36,36
1617120304.8030534,65,65,65,65,65,65,36,36,36,36,36,36
1617120304.873398,65,65,65,65,65,65,37,37,37,37,37,37
1617120304.9402206,66,66,66,66,66,66,37,37,37,37,37,37
1617120305.0030506,67,67,67,67,67,67,37,37,37,37,37,37
1617120305.0676813,67,67,67,67,67,67,38,38,38,38,38,38
1617120305.131521,68,68,68,68,68,68,38,38,38,38,38,38
1617120305.2123349,69,69,69,69,69,69,39,39,39,39,39,39
1617120305.274406,69,69,69,69,69,69,39,39,39,39,39,39
1617120305.3377805,70,70,70,70,70,70,39,39,39,39,39,39
1617120305.4015727,70,70,70,70,70,70,39,39,39,39,39,39
1617120305.467262,71,71,71,71,71,71,40,40,40,40,40,40
1617120305.5460825,71,71,71,71,71,71,40,40,40,40,40,40
1617120305.6108794,72,72,72,72,72,72,40,40,40,40,40,40
1617120305.674709,73,73,73,73,73,73,41,41,41,41,41,41
1617120305.743525,73,73,73,73,73,73,41,41,41,41,41,41
1617120305.8027813,74,74,74,74,74,74,41,41,41,41,41,41
1617120305.8655865,74,74,74,74,74,74,42,42,42,42,42,42
1617120305.943379,75,75,75,75,75,75,42,42,42,42,42,42
1617120306.0121942,76,76,76,76,76,76,42,42,42,42,42,42
1617120306.0770195,76,76,76,76,76,76,43,43,43,43,43,43
1617120306.1389813,77,77,77,77,77,77,43,43,43,43,43,43
1617120306.2277467,78,78,78,78,78,78,44,44,44,44,44,44
1617120306.2828746,78,78,78,78,78,78,44,44,44,44,44,44
1617120306.3457086,79,79,79,79,79,79,44,44,44,44,44,44
1617120306.410944,79,79,79,79,79,79,44,44,44,44,44,44
1617120306.4777367,80,80,80,80,80,80,45,45,45,45,45,45
1617120306.53957,81,81,81,81,81,81,45,45,45,45,45,45
1617120306.6014056,81,81,81,81,81,81,45,45,45,45,45,45
1617120306.6792266,82,82,82,82,82,82,46,46,46,46,46,46
1617120306.7461197,82,82,82,82,82,82,46,46,46,46,46,46
1617120306.8097305,83,83,83,83,83,83,46,46,46,46,46,46
1617120306.8665814,84,84,84,84,84,84,47,47,47,47,47,47
1617120306.940353,84,84,84,84,84,84,47,47,47,47,47,47
1617120307.0189028,85,85,85,85,85,85,47,47,47,47,47,47
1617120307.0827336,86,86,86,86,86,86,48,48,48,48,48,48
1617120307.1475601,86,86,86,86,86,86,48,48,48,48,48,48
1617120307.2123868,87,87,87,87,87,87,48,48,48,48,48,48
1617120307.2732244,87,87,87,87,87,87,49,49,49,49,49,49
1617120307.3540084,88,88,88,88,88,88,49,49,49,49,49,49
1617120307.4197836,89,89,89,89,89,89,49,49,49,49,49,49
1617120307.48162,90,90,90,90,90,90,50,50,50,50,50,50
1617120307.5454497,90,90,90,90,90,90,50,50,50,50,50,50
1617120307.6132684,91,91,91,91,91,91,50,50,50,50,50,50
1617120307.6761005,91,91,91,91,91,91,51,51,51,51,51,51
1617120307.7529275,92,92,92,92,92,92,51,51,51,51,51,51
1617120307.8197172,93,93,93,93,93,93,51,51,51,51,51,51
1617120307.883574,93,93,93,93,93,93,52,52,52,52,52,52
1617120307.9463778,94,94,94,94,94,94,52,52,52,52,52,52
1617120308.0112047,95,95,95,95,95,95,52,52,52,52,52,52
1617120308.0850062,95,95,95,95,95,95,53,53,53,53,53,53
1617120308.1562867,96,96,96,96,96,96,53,53,53,53,53,53
1617120308.2181215,97,97,97,97,97,97,53,53,53,53,53,53
1617120308.2819762,97,97,97,97,97,97,54,54,54,54,54,54
1617120308.3463109,98,98,98,98,98,98,54,54,54,54,54,54
1617120308.410134,98,98,98,98,98,98,54,54,54,54,54,54
1617120308.4919155,99,99,99,99,99,99,55,55,55,55,55,55
1617120308.554315,100,100,100,100,100,100,55,55,55,55,55,55
1617120308.6171772,100,100,100,100,100,100,55,55,55,55,55,55
1617120308.6819732,101,101,101,101,101,101,56,56,56,56,56,56
1617120308.746801,102,102,102,102,102,102,56,56,56,56,56,56
1617120308.8201976,102,102,102,102,102,102,56,56,56,56,56,56
1617120308.8909795,103,103,103,103,103,103,57,57,57,57,57,57
1617120308.9538116,103,103,103,103,103,103,57,57,57,57,57,57
1617120309.0176413,104,104,104,104,104,104,57,57,57,57,57,57
1617120309.0835915,105,105,105,105,105,105,58,58,58,58,58,58
1617120309.1464531,105,105,105,105,105,105,58,58,58,58,58,58
1617120309.2262383,106,106,106,106,106,106,58,58,58,58,58,58
1617120309.291037,107,107,107,107,107,107,59,59,59,59,59,59
1617120309.3538697,107,107,107,107,107,107,59,59,59,59,59,59
1617120309.4196928,108,108,108,108,108,108,59,59,59,59,59,59
1617120309.4767988,108,108,108,108,108,108,60,60,60,60,60,60
1617120309.555374,109,109,109,109,109,109,60,60,60,60,60,60
1617120309.6172092,110,110,110,110,110,110,60,60,60,60,60,60
1617120309.6920137,111,111,111,111,111,111,61,61,61,61,61,61
1617120309.7717931,111,111,111,111,111,111,61,61,61,61,61,61
1617120309.8346252,112,112,112,112,112,112,61,61,61,61,61,61
1617120309.9024446,113,113,113,113,113,113,62,62,62,62,62,62
1617120309.9521763,113,113,113,113,113,113,62,62,62,62,62,62
1617120310.0268633,114,114,114,114,114,114,62,62,62,62,62,62
1617120310.0867364,114,114,114,114,114,114,63,63,63,63,63,63
1617120310.1645257,115,115,115,115,115,115,63,63,63,63,63,63
1617120310.21935,116,116,116,116,116,116,63,63,63,63,63,63
1617120310.299444,116,116,116,116,116,116,64,64,64,64,64,64
1617120310.3619602,117,117,117,117,117,117,64,64,64,64,64,64
1617120310.4295352,117,117,117,117,117,117,64,64,64,64,64,64
1617120310.491348,118,118,118,118,118,118,65,65,65,65,65,65
1617120310.5541523,119,119,119,119,119,119,65,65,65,65,65,65
1617120310.6184337,119,119,119,119,119,119,65,65,65,65,65,65
1617120310.6952586,120,120,120,120,120,120,66,66,66,66,66,66
1617120310.762051,120,120,120,120,120,120,66,66,66,66,66,66
1617120310.8198962,121,121,121,121,121,121,66,66,66,66,66,66
1617120310.8912416,122,122,122,122,122,122,67,67,67,67,67,67
1617120310.9550703,122,122,122,122,122,122,67,67,67,67,67,67
1617120311.0348299,123,123,123,123,123,123,67,67,67,67,67,67
1617120311.131141,124,124,124,124,124,124,68,68,68,68,68,68
1617120311.1939394,124,124,124,124,124,124,68,68,68,68,68,68
1617120311.2597632,125,125,125,125,125,125,68,68,68,68,68,68
1617120311.325588,126,126,126,126,126,126,69,69,69,69,69,69
1617120311.4042885,126,126,126,126,126,126,69,69,69,69,69,69
1617120311.4672587,127,127,127,127,127,127,69,69,69,69,69,69
1617120311.5311167,128,128,128,128,128,128,70,70,70,70,70,70
1617120311.595915,128,128,128,128,128,128,70,70,70,70,70,70
1617120311.659744,129,129,129,129,129,129,70,70,70,70,70,70
1617120311.7235718,129,129,129,129,129,129,70,70,70,70,70,70
1617120311.8003678,130,130,130,130,130,130,71,71,71,71,71,71
1617120311.8661923,131,131,131,131,131,131,71,71,71,71,71,71
1617120311.9260314,132,132,132,132,132,132,72,72,72,72,72,72
1617120311.993851,132,132,132,132,132,132,72,72,72,72,72,72
1617120312.0596755,133,133,133,133,133,133,72,72,72,72,72,72
1617120312.1305149,133,133,133,133,133,133,72,72,72,72,72,72
1617120312.203404,134,134,134,134,134,134,73,73,73,73,73,73
1617120312.266298,134,134,134,134,134,134,73,73,73,73,73,73
1617120312.3321226,135,135,135,135,135,135,73,73,73,73,73,73
1617120312.3969486,136,136,136,136,136,136,74,74,74,74,74,74
1617120312.4607787,136,136,136,136,136,136,74,74,74,74,74,74
1617120312.539567,137,137,137,137,137,137,74,74,74,74,74,74
1617120312.6024275,137,137,137,137,137,137,75,75,75,75,75,75
1617120312.668224,138,138,138,138,138,138,75,75,75,75,75,75
1617120312.7310562,139,139,139,139,139,139,75,75,75,75,75,75
1617120312.795773,139,139,139,139,139,139,76,76,76,76,76,76
1617120312.8825433,140,140,140,140,140,140,76,76,76,76,76,76
1617120312.9394188,141,141,141,141,141,141,76,76,76,76,76,76
1617120313.0022223,141,141,141,141,141,141,77,77,77,77,77,77
1617120313.0646863,142,142,142,142,142,142,77,77,77,77,77,77
1617120313.1324773,143,143,143,143,143,143,77,77,77,77,77,77
1617120313.1964352,143,143,143,143,143,143,78,78,78,78,78,78
1617120313.2732632,144,144,144,144,144,144,78,78,78,78,78,78
1617120313.3370597,144,144,144,144,144,144,78,78,78,78,78,78
1617120313.4064436,145,145,145,145,145,145,79,79,79,79,79,79
1617120313.507169,146,146,146,146,146,146,79,79,79,79,79,79
1617120313.5635238,147,147,147,147,147,147,79,79,79,79,79,79
1617120313.6442368,147,147,147,147,147,147,80,80,80,80,80,80
1617120313.708065,148,148,148,148,148,148,80,80,80,80,80,80
1617120313.770928,148,148,148,148,148,148,80,80,80,80,80,80
1617120313.837343,149,149,149,149,149,149,81,81,81,81,81,81
1617120313.9141378,150,150,150,150,150,150,81,81,81,81,81,81
1617120313.9789352,150,150,150,150,150,150,82,82,82,82,82,82
1617120314.0427933,151,151,151,151,151,151,82,82,82,82,82,82
1617120314.1085887,152,152,152,152,152,152,82,82,82,82,82,82
1617120314.1724477,152,152,152,152,152,152,82,82,82,82,82,82
1617120314.2368076,153,153,153,153,153,153,83,83,83,83,83,83
1617120314.3046541,154,154,154,154,154,154,83,83,83,83,83,83
1617120314.3824468,154,154,154,154,154,154,84,84,84,84,84,84
1617120314.4438486,155,155,155,155,155,155,84,84,84,84,84,84
1617120314.5076795,155,155,155,155,155,155,84,84,84,84,84,84
1617120314.570481,156,156,156,156,156,156,84,84,84,84,84,84
1617120314.633314,157,157,157,157,157,157,85,85,85,85,85,85
1617120314.7101073,157,157,157,157,157,157,85,85,85,85,85,85
1617120314.7789624,158,158,158,158,158,158,85,85,85,85,85,85
1617120314.842848,158,158,158,158,158,158,86,86,86,86,86,86
1617120314.9096713,159,159,159,159,159,159,86,86,86,86,86,86
1617120314.9735706,160,160,160,160,160,160,86,86,86,86,86,86
1617120315.0344079,160,160,160,160,160,160,87,87,87,87,87,87
1617120315.1162388,161,161,161,161,161,161,87,87,87,87,87,87
1617120315.1790695,161,161,161,161,161,161,87,87,87,87,87,87
1617120315.2438962,162,162,162,162,162,162,88,88,88,88,88,88
1617120315.3077257,163,163,163,163,163,163,88,88,88,88,88,88
1617120315.3705585,163,163,163,163,163,163,88,88,88,88,88,88
1617120315.4498525,164,164,164,164,164,164,89,89,89,89,89,89
1617120315.5166738,165,165,165,165,165,165,89,89,89,89,89,89
1617120315.5775282,165,165,165,165,165,165,89,89,89,89,89,89
1617120315.6632817,166,166,166,166,166,166,90,90,90,90,90,90
1617120315.72013,167,167,167,167,167,167,90,90,90,90,90,90
1617120315.785954,167,167,167,167,167,167,90,90,90,90,90,90
1617120315.8667672,168,168,168,168,168,168,91,91,91,91,91,91
1617120315.9439206,169,169,169,169,169,169,91,91,91,91,91,91
1617120316.012709,170,170,170,170,170,170,92,92,92,92,92,92
1617120316.0745754,170,170,170,170,170,170,92,92,92,92,92,92
1617120316.16027,171,171,171,171,171,171,92,92,92,92,92,92
1617120316.217956,171,171,171,171,171,171,93,93,93,93,93,93
1617120316.282814,172,172,172,172,172,172,93,93,93,93,93,93
1617120316.3464644,173,173,173,173,173,173,93,93,93,93,93,93
1617120316.4102662,173,173,173,173,173,173,93,93,93,93,93,93
1617120316.4750972,174,174,174,174,174,174,94,94,94,94,94,94
1617120316.5543385,174,174,174,174,174,174,94,94,94,94,94,94
1617120316.6191945,175,175,175,175,175,175,95,95,95,95,95,95
1617120316.6827285,176,176,176,176,176,176,95,95,95,95,95,95
1617120316.7465892,176,176,176,176,176,176,95,95,95,95,95,95
1617120316.8123832,177,177,177,177,177,177,96,96,96,96,96,96
1617120316.8901756,178,178,178,178,178,178,96,96,96,96,96,96
1617120316.954005,178,178,178,178,178,178,96,96,96,96,96,96
1617120317.0178342,179,179,179,179,179,179,97,97,97,97,97,97
1617120317.0826607,179,179,179,179,179,179,97,97,97,97,97,97
1617120317.148485,180,180,180,180,180,180,97,97,97,97,97,97
1617120317.2123427,181,181,181,181,181,181,98,98,98,98,98,98
1617120317.2921333,181,181,181,181,181,181,98,98,98,98,98,98
1617120317.35593,182,182,182,182,182,182,98,98,98,98,98,98
1617120317.4187636,183,183,183,183,183,183,99,99,99,99,99,99
1617120317.4816902,183,183,183,183,183,183,99,99,99,99,99,99
1617120317.5481687,184,184,184,184,184,184,99,99,99,99,99,99
1617120317.619008,184,184,184,184,184,184,99,99,99,99,99,99
1617120317.6918278,185,185,185,185,185,185,100,100,100,100,100,100
1617120317.7557702,186,186,186,186,186,186,100,100,100,100,100,100
1617120317.8196,186,186,186,186,186,186,100,100,100,100,100,100
1617120317.8820066,187,187,187,187,187,187,101,101,101,101,101,101
1617120317.947861,187,187,187,187,187,187,101,101,101,101,101,101
1617120318.0276449,188,188,188,188,188,188,101,101,101,101,101,101
1617120318.0908787,189,189,189,189,189,189,102,102,102,102,102,102
1617120318.156704,189,189,189,189,189,189,102,102,102,102,102,102
1617120318.242476,190,190,190,190,190,190,103,103,103,103,103,103
1617120318.3172748,191,191,191,191,191,191,103,103,103,103,103,103
1617120318.3970623,192,192,192,192,192,192,103,103,103,103,103,103
1617120318.4618883,192,192,192,192,192,192,104,104,104,104,104,104
1617120318.5217566,193,193,193,193,193,193,104,104,104,104,104,104
1617120318.5866811,193,193,193,193,193,193,104,104,104,104,104,104
1617120318.6495428,194,194,194,194,194,194,104,104,104,104,104,104
1617120318.7283335,194,194,194,194,194,194,105,105,105,105,105,105
1617120318.796465,195,195,195,195,195,195,105,105,105,105,105,105
1617120318.861292,196,196,196,196,196,196,105,105,105,105,105,105
1617120318.925121,196,196,196,196,196,196,106,106,106,106,106,106
1617120318.9880342,197,197,197,197,197,197,106,106,106,106,106,106
1617120319.050998,197,197,197,197,197,197,106,106,106,106,106,106
1617120319.1317797,198,198,198,198,198,198,107,107,107,107,107,107
1617120319.1956363,199,199,199,199,199,199,107,107,107,107,107,107
1617120319.258976,199,199,199,199,199,199,107,107,107,107,107,107
1617120319.322804,200,200,200,200,200,200,108,108,108,108,108,108
1617120319.386662,201,201,201,201,201,201,108,108,108,108,108,108
1617120319.4670734,201,201,201,201,201,201,108,108,108,108,108,108
1617120319.5329285,200,200,200,200,200,200,109,109,109,109,109,109
1617120319.5957596,200,200,200,200,200,200,109,109,109,109,109,109
1617120319.6585639,199,199,199,199,199,199,109,109,109,109,109,109
1617120319.7243881,198,198,198,198,198,198,110,110,110,110,110,110
1617120319.7872477,198,198,198,198,198,198,110,110,110,110,110,110
1617120319.8649106,197,197,197,197,197,197,110,110,110,110,110,110
1617120319.931186,196,196,196,196,196,196,111,111,111,111,111,111
1617120319.9919693,196,196,196,196,196,196,111,111,111,111,111,111
1617120320.0597677,195,195,195,195,195,195,111,111,111,111,111,111
1617120320.1228552,195,195,195,195,195,195,112,112,112,112,112,112
1617120320.1956313,194,194,194,194,194,194,112,112,112,112,112,112
1617120320.2664423,193,193,193,193,193,193,112,112,112,112,112,112
1617120320.332266,193,193,193,193,193,193,113,113,113,113,113,113
1617120320.3951132,192,192,192,192,192,192,113,113,113,113,113,113
1617120320.458346,191,191,191,191,191,191,113,113,113,113,113,113
1617120320.5232017,191,191,191,191,191,191,114,114,114,114,114,114
1617120320.6000197,190,190,190,190,190,190,114,114,114,114,114,114
1617120320.6664014,190,190,190,190,190,190,114,114,114,114,114,114
1617120320.7332242,189,189,189,189,189,189,115,115,115,115,115,115
1617120320.796157,188,188,188,188,188,188,115,115,115,115,115,115
1617120320.8590188,188,188,188,188,188,188,115,115,115,115,115,115
1617120320.9407713,187,187,187,187,187,187,116,116,116,116,116,116
1617120321.0026062,187,187,187,187,187,187,116,116,116,116,116,116
1617120321.0684764,186,186,186,186,186,186,116,116,116,116,116,116
1617120321.1331913,185,185,185,185,185,185,117,117,117,117,117,117
1617120321.1950297,185,185,185,185,185,185,117,117,117,117,117,117
1617120321.2626152,184,184,184,184,184,184,117,117,117,117,117,117
1617120321.3364494,184,184,184,184,184,184,118,118,118,118,118,118
1617120321.40359,183,183,183,183,183,183,118,118,118,118,118,118
1617120321.467669,182,182,182,182,182,182,118,118,118,118,118,118
1617120321.5304635,182,182,182,182,182,182,119,119,119,119,119,119
1617120321.6168993,181,181,181,181,181,181,119,119,119,119,119,119
1617120321.6747446,180,180,180,180,180,180,119,119,119,119,119,119
1617120321.7365801,180,180,180,180,180,180,120,120,120,120,120,120
1617120321.8047338,179,179,179,179,179,179,120,120,120,120,120,120
1617120321.867566,179,179,179,179,179,179,120,120,120,120,120,120
1617120321.9323912,178,178,178,178,178,178,120,120,120,120,120,120
1617120321.9942882,178,178,178,178,178,178,121,121,121,121,121,121
1617120322.072049,177,177,177,177,177,177,121,121,121,121,121,121
1617120322.1388974,176,176,176,176,176,176,122,122,122,122,122,122
1617120322.2017462,176,176,176,176,176,176,122,122,122,122,122,122
1617120322.2685688,175,175,175,175,175,175,122,122,122,122,122,122
1617120322.330415,174,174,174,174,174,174,123,123,123,123,123,123
1617120322.413183,174,174,174,174,174,174,123,123,123,123,123,123
1617120322.4750173,173,173,173,173,173,173,123,123,123,123,123,123
1617120322.5388687,172,172,172,172,172,172,124,124,124,124,124,124
1617120322.6017082,172,172,172,172,172,172,124,124,124,124,124,124
1617120322.6656003,171,171,171,171,171,171,124,124,124,124,124,124
1617120322.730458,171,171,171,171,171,171,124,124,124,124,124,124
1617120322.7823193,170,170,170,170,170,170,125,125,125,125,125,125
1617120322.844205,169,169,169,169,169,169,125,125,125,125,125,125
1617120322.9070055,169,169,169,169,169,169,125,125,125,125,125,125
1617120322.9718332,168,168,168,168,168,168,126,126,126,126,126,126
1617120323.034692,167,167,167,167,167,167,126,126,126,126,126,126
1617120323.1175985,167,167,167,167,167,167,126,126,126,126,126,126
1617120323.1824071,166,166,166,166,166,166,127,127,127,127,127,127
1617120323.245231,165,165,165,165,165,165,127,127,127,127,127,127
1617120323.3070636,165,165,165,165,165,165,127,127,127,127,127,127
1617120323.3774676,164,164,164,164,164,164,128,128,128,128,128,128
1617120323.4368355,163,163,163,163,163,163,128,128,128,128,128,128
1617120323.5076478,163,163,163,163,163,163,128,128,128,128,128,128
1617120323.5824478,162,162,162,162,162,162,129,129,129,129,129,129
1617120323.6445038,162,162,162,162,162,162,129,129,129,129,129,129
1617120323.708336,161,161,161,161,161,161,129,129,129,129,129,129
1617120323.7719285,160,160,160,160,160,160,130,130,130,130,130,130
1617120323.8476722,160,160,160,160,160,160,130,130,130,130,130,130
1617120323.9105322,159,159,159,159,159,159,130,130,130,130,130,130
1617120323.9793484,159,159,159,159,159,159,131,131,131,131,131,131
1617120324.046142,158,158,158,158,158,158,131,131,131,131,131,131
1617120324.137924,157,157,157,157,157,157,131,131,131,131,131,131
1617120324.2107306,157,157,157,157,157,157,132,132,132,132,132,132
1617120324.282509,156,156,156,156,156,156,132,132,132,132,132,132
1617120324.3463693,155,155,155,155,155,155,133,133,133,133,133,133
1617120324.4111652,155,155,155,155,155,155,133,133,133,133,133,133
1617120324.4769883,154,154,154,154,154,154,133,133,133,133,133,133
1617120324.538402,154,154,154,154,154,154,133,133,133,133,133,133
1617120324.6165364,153,153,153,153,153,153,134,134,134,134,134,134
1617120324.6833587,152,152,152,152,152,152,134,134,134,134,134,134
1617120324.7467833,152,152,152,152,152,152,135,135,135,135,135,135
1617120324.8046298,151,151,151,151,151,151,135,135,135,135,135,135
1617120324.874929,150,150,150,150,150,150,135,135,135,135,135,135
1617120324.9577384,150,150,150,150,150,150,136,136,136,136,136,136
1617120325.0175774,149,149,149,149,149,149,136,136,136,136,136,136
1617120325.083419,149,149,149,149,149,149,136,136,136,136,136,136
1617120325.1482477,148,148,148,148,148,148,137,137,137,137,137,137
1617120325.213103,147,147,147,147,147,147,137,137,137,137,137,137
1617120325.2898698,147,147,147,147,147,147,137,137,137,137,137,137
1617120325.3556933,146,146,146,146,146,146,138,138,138,138,138,138
1617120325.4195218,146,146,146,146,146,146,138,138,138,138,138,138
1617120325.522247,145,145,145,145,145,145,138,138,138,138,138,138
1617120325.58112,144,144,144,144,144,144,139,139,139,139,139,139
1617120325.643922,144,144,144,144,144,144,139,139,139,139,139,139
1617120325.7247071,143,143,143,143,143,143,139,139,139,139,139,139
1617120325.78657,142,142,142,142,142,142,140,140,140,140,140,140
1617120325.8525205,142,142,142,142,142,142,140,140,140,140,140,140
1617120325.9153242,141,141,141,141,141,141,140,140,140,140,140,140
1617120325.987162,140,140,140,140,140,140,141,141,141,141,141,141
1617120326.0605016,140,140,140,140,140,140,141,141,141,141,141,141
1617120326.122336,139,139,139,139,139,139,141,141,141,141,141,141
1617120326.1860178,139,139,139,139,139,139,142,142,142,142,142,142
1617120326.2518413,138,138,138,138,138,138,142,142,142,142,142,142
1617120326.3152745,137,137,137,137,137,137,142,142,142,142,142,142
1617120326.381143,137,137,137,137,137,137,143,143,143,143,143,143
1617120326.458967,136,136,136,136,136,136,143,143,143,143,143,143
1617120326.5237904,136,136,136,136,136,136,143,143,143,143,143,143
1617120326.5865939,135,135,135,135,135,135,143,143,143,143,143,143
1617120326.6517255,134,134,134,134,134,134,144,144,144,144,144,144
1617120326.714557,134,134,134,134,134,134,144,144,144,144,144,144
1617120326.7883584,133,133,133,133,133,133,144,144,144,144,144,144
1617120326.8591714,133,133,133,133,133,133,145,145,145,145,145,145
1617120326.9250236,132,132,132,132,132,132,145,145,145,145,145,145
1617120326.99381,131,131,131,131,131,131,145,145,145,145,145,145
1617120327.0516562,131,131,131,131,131,131,146,146,146,146,146,146
1617120327.1165104,130,130,130,130,130,130,146,146,146,146,146,146
1617120327.1939056,129,129,129,129,129,129,146,146,146,146,146,146
1617120327.2605083,129,129,129,129,129,129,147,147,147,147,147,147
1617120327.3233693,128,128,128,128,128,128,147,147,147,147,147,147
1617120327.3871987,128,128,128,128,128,128,147,147,147,147,147,147
1617120327.4606066,127,127,127,127,127,127,148,148,148,148,148,148
1617120327.5344102,126,126,126,126,126,126,148,148,148,148,148,148
1617120327.5942352,126,126,126,126,126,126,148,148,148,148,148,148
1617120327.6741686,125,125,125,125,125,125,149,149,149,149,149,149
1617120327.749853,124,124,124,124,124,124,149,149,149,149,149,149
1617120327.8196933,124,124,124,124,124,124,149,149,149,149,149,149
1617120327.8984823,123,123,123,123,123,123,150,150,150,150,150,150
1617120327.9652772,122,122,122,122,122,122,150,150,150,150,150,150
1617120328.0281084,122,122,122,122,122,122,150,150,150,150,150,150
1617120328.0929353,121,121,121,121,121,121,151,151,151,151,151,151
1617120328.1557958,120,120,120,120,120,120,151,151,151,151,151,151
1617120328.2200744,120,120,120,120,120,120,151,151,151,151,151,151
1617120328.2995543,119,119,119,119,119,119,152,152,152,152,152,152
1617120328.3633835,118,118,118,118,118,118,152,152,152,152,152,152
1617120328.427213,118,118,118,118,118,118,152,152,152,152,152,152
1617120328.493037,117,117,117,117,117,117,153,153,153,153,153,153
1617120328.556889,116,116,116,116,116,116,153,153,153,153,153,153
1617120328.6346717,116,116,116,116,116,116,153,153,153,153,153,153
1617120328.7109525,115,115,115,115,115,115,154,154,154,154,154,154
1617120328.7887757,114,114,114,114,114,114,154,154,154,154,154,154
1617120328.8595853,114,114,114,114,114,114,154,154,154,154,154,154
1617120328.9231799,113,113,113,113,113,113,155,155,155,155,155,155
1617120328.9910345,112,112,112,112,112,112,155,155,155,155,155,155
1617120329.0677948,112,112,112,112,112,112,155,155,155,155,155,155
1617120329.130625,111,111,111,111,111,111,156,156,156,156,156,156
1617120329.1948254,110,110,110,110,110,110,156,156,156,156,156,156
1617120329.259502,110,110,110,110,110,110,156,156,156,156,156,156
1617120329.3253257,109,109,109,109,109,109,157,157,157,157,157,157
1617120329.3971057,109,109,109,109,109,109,157,157,157,157,157,157
1617120329.466947,108,108,108,108,108,108,157,157,157,157,157,157
1617120329.5310829,107,107,107,107,107,107,158,158,158,158,158,158
1617120329.59443,107,107,107,107,107,107,158,158,158,158,158,158
1617120329.6598558,106,106,106,106,106,106,158,158,158,158,158,158
1617120329.7376764,105,105,105,105,105,105,159,159,159,159,159,159
1617120329.8034716,105,105,105,105,105,105,159,159,159,159,159,159
1617120329.8683271,104,104,104,104,104,104,159,159,159,159,159,159
1617120329.9323118,104,104,104,104,104,104,160,160,160,160,160,160
1617120329.9971912,103,103,103,103,103,103,160,160,160,160,160,160
1617120330.0620484,102,102,102,102,102,102,160,160,160,160,160,160
1617120330.1418056,102,102,102,102,102,102,161,161,161,161,161,161
1617120330.2026422,101,101,101,101,101,101,161,161,161,161,161,161
1617120330.2694633,100,100,100,100,100,100,161,161,161,161,161,161
1617120330.330273,100,100,100,100,100,100,162,162,162,162,162,162
1617120330.396096,99,99,99,99,99,99,162,162,162,162,162,162
1617120330.474915,98,98,98,98,98,98,162,162,162,162,162,162
1617120330.5387151,98,98,98,98,98,98,163,163,163,163,163,163
1617120330.6075592,97,97,97,97,97,97,163,163,163,163,163,163
1617120330.6963243,96,96,96,96,96,96,163,163,163,163,163,163
1617120330.7641132,95,95,95,95,95,95,164,164,164,164,164,164
1617120330.8374674,95,95,95,95,95,95,164,164,164,164,164,164
1617120330.909276,94,94,94,94,94,94,164,164,164,164,164,164
1617120330.9721086,93,93,93,93,93,93,165,165,165,165,165,165
1617120331.0369344,93,93,93,93,93,93,165,165,165,165,165,165
1617120331.1157525,92,92,92,92,92,92,166,166,166,166,166,166
1617120331.1955423,91,91,91,91,91,91,166,166,166,166,166,166
1617120331.2493668,91,91,91,91,91,91,166,166,166,166,166,166
1617120331.339169,90,90,90,90,90,90,167,167,167,167,167,167
1617120331.4034197,89,89,89,89,89,89,167,167,167,167,167,167
1617120331.4682477,88,88,88,88,88,88,167,167,167,167,167,167
1617120331.53261,88,88,88,88,88,88,168,168,168,168,168,168
1617120331.6134226,87,87,87,87,87,87,168,168,168,168,168,168
1617120331.6772296,86,86,86,86,86,86,168,168,168,168,168,168
1617120331.7400978,86,86,86,86,86,86,169,169,169,169,169,169
1617120331.8043969,85,85,85,85,85,85,169,169,169,169,169,169
1617120331.867955,85,85,85,85,85,85,169,169,169,169,169,169
1617120331.9437828,84,84,84,84,84,84,170,170,170,170,170,170
1617120332.0106034,84,84,84,84,84,84,170,170,170,170,170,170
1617120332.0763996,83,83,83,83,83,83,170,170,170,170,170,170
1617120332.1391165,82,82,82,82,82,82,171,171,171,171,171,171
1617120332.2041678,82,82,82,82,82,82,171,171,171,171,171,171
1617120332.2679923,81,81,81,81,81,81,171,171,171,171,171,171
1617120332.3457847,81,81,81,81,81,81,171,171,171,171,171,171
1617120332.4110167,80,80,80,80,80,80,172,172,172,172,172,172
1617120332.475844,79,79,79,79,79,79,172,172,172,172,172,172
1617120332.537707,79,79,79,79,79,79,172,172,172,172,172,172
1617120332.6048508,78,78,78,78,78,78,173,173,173,173,173,173
1617120332.6842053,77,77,77,77,77,77,173,173,173,173,173,173
1617120332.7477012,77,77,77,77,77,77,173,173,173,173,173,173
1617120332.8021271,76,76,76,76,76,76,174,174,174,174,174,174
1617120332.8774307,76,76,76,76,76,76,174,174,174,174,174,174
1617120332.9384513,75,75,75,75,75,75,174,174,174,174,174,174
1617120333.0202336,74,74,74,74,74,74,175,175,175,175,175,175
1617120333.0830655,74,74,74,74,74,74,175,175,175,175,175,175
1617120333.1479213,73,73,73,73,73,73,175,175,175,175,175,175
1617120333.2097561,72,72,72,72,72,72,176,176,176,176,176,176
1617120333.2775464,72,72,72,72,72,72,176,176,176,176,176,176
1617120333.3550603,71,71,71,71,71,71,177,177,177,177,177,177
1617120333.419889,70,70,70,70,70,70,177,177,177,177,177,177
1617120333.4838088,70,70,70,70,70,70,177,177,177,177,177,177
1617120333.5476658,69,69,69,69,69,69,177,177,177,177,177,177
1617120333.632412,69,69,69,69,69,69,178,178,178,178,178,178
1617120333.697238,68,68,68,68,68,68,178,178,178,178,178,178
1617120333.754445,67,67,67,67,67,67,178,178,178,178,178,178
1617120333.8183193,67,67,67,67,67,67,179,179,179,179,179,179
1617120333.8821502,66,66,66,66,66,66,179,179,179,179,179,179
1617120333.9469764,66,66,66,66,66,66,179,179,179,179,179,179
1617120334.0123727,65,65,65,65,65,65,180,180,180,180,180,180
1617120334.075708,64,64,64,64,64,64,180,180,180,180,180,180
1617120334.124577,64,64,64,64,64,64,180,180,180,180,180,180
1617120334.189404,63,63,63,63,63,63,181,181,181,181,181,181
1617120334.2518091,63,63,63,63,63,63,181,181,181,181,181,181
1617120334.314671,62,62,62,62,62,62,181,181,181,181,181,181
1617120334.3785028,61,61,61,61,61,61,182,182,182,182,182,182
1617120334.4442942,61,61,61,61,61,61,182,182,182,182,182,182
1617120334.5219724,60,60,60,60,60,60,182,182,182,182,182,182
1617120334.5882852,60,60,60,60,60,60,183,183,183,183,183,183
1617120334.6531138,59,59,59,59,59,59,183,183,183,183,183,183
1617120334.7139852,58,58,58,58,58,58,183,183,183,183,183,183
1617120334.7787778,58,58,58,58,58,58,184,184,184,184,184,184
1617120334.835124,57,57,57,57,57,57,184,184,184,184,184,184
1617120334.8917174,57,57,57,57,57,57,184,184,184,184,184,184
1617120334.9555488,56,56,56,56,56,56,184,184,184,184,184,184
1617120335.0193782,56,56,56,56,56,56,185,185,185,185,185,185
1617120335.0842068,55,55,55,55,55,55,185,185,185,185,185,185
1617120335.1460402,54,54,54,54,54,54,185,185,185,185,185,185
1617120335.2258546,53,53,53,53,53,53,186,186,186,186,186,186
1617120335.2916503,53,53,53,53,53,53,186,186,186,186,186,186
1617120335.3547368,52,52,52,52,52,52,186,186,186,186,186,186
1617120335.4185843,52,52,52,52,52,52,187,187,187,187,187,187
1617120335.4815533,51,51,51,51,51,51,187,187,187,187,187,187
1617120335.5434883,50,50,50,50,50,50,187,187,187,187,187,187
1617120335.597343,50,50,50,50,50,50,188,188,188,188,188,188
1617120335.6591785,49,49,49,49,49,49,188,188,188,188,188,188
1617120335.7255366,49,49,49,49,49,49,188,188,188,188,188,188
1617120335.7873728,48,48,48,48,48,48,189,189,189,189,189,189
1617120335.851202,48,48,48,48,48,48,189,189,189,189,189,189
1617120335.915032,47,47,47,47,47,47,189,189,189,189,189,189
1617120335.9948492,46,46,46,46,46,46,190,190,190,190,190,190
1617120336.0596447,46,46,46,46,46,46,190,190,190,190,190,190
1617120336.1245003,45,45,45,45,45,45,190,190,190,190,190,190
1617120336.188301,44,44,44,44,44,44,191,191,191,191,191,191
1617120336.2512348,44,44,44,44,44,44,191,191,191,191,191,191
1617120336.3340154,43,43,43,43,43,43,191,191,191,191,191,191
1617120336.3978453,43,43,43,43,43,43,191,191,191,191,191,191
1617120336.4599469,42,42,42,42,42,42,192,192,192,192,192,192
1617120336.523776,41,41,41,41,41,41,192,192,192,192,192,192
1617120336.5876372,41,41,41,41,41,41,192,192,192,192,192,192
1617120336.6510477,40,40,40,40,40,40,193,193,193,193,193,193
1617120336.7287169,40,40,40,40,40,40,193,193,193,193,193,193
1617120336.7965918,39,39,39,39,39,39,193,193,193,193,193,193
1617120336.8624156,38,38,38,38,38,38,194,194,194,194,194,194
1617120336.9252477,38,38,38,38,38,38,194,194,194,194,194,194
1617120336.9868326,37,37,37,37,37,37,194,194,194,194,194,194
1617120337.0676181,36,36,36,36,36,36,195,195,195,195,195,195
1617120337.131448,36,36,36,36,36,36,195,195,195,195,195,195
1617120337.1952765,35,35,35,35,35,35,195,195,195,195,195,195
1617120337.2621305,35,35,35,35,35,35,196,196,196,196,196,196
1617120337.326925,34,34,34,34,34,34,196,196,196,196,196,196
1617120337.4165945,33,33,33,33,33,33,196,196,196,196,196,196
1617120337.4685044,32,32,32,32,32,32,197,197,197,197,197,197
1617120337.532288,32,32,32,32,32,32,197,197,197,197,197,197
1617120337.595149,31,31,31,31,31,31,197,197,197,197,197,197
1617120337.6589775,31,31,31,31,31,31,197,197,197,197,197,197
1617120337.7257698,30,30,30,30,30,30,198,198,198,198,198,198
1617120337.803575,29,29,29,29,29,29,198,198,198,198,198,198
1617120337.8664236,29,29,29,29,29,29,198,198,198,198,198,198
1617120337.932253,28,28,28,28,28,28,199,199,199,199,199,199
1617120337.99505,27,27,27,27,27,27,199,199,199,199,199,199
1617120338.0608737,27,27,27,27,27,27,199,199,199,199,199,199
1617120338.1250908,26,26,26,26,26,26,200,200,200,200,200,200
1617120338.2047684,25,25,25,25,25,25,200,200,200,200,200,200
1617120338.2825623,25,25,25,25,25,25,201,201,201,201,201,201
1617120338.3629117,24,24,24,24,24,24,201,201,201,201,201,201
1617120338.4297333,23,23,23,23,23,23,201,201,201,201,201,201
1617120338.4921443,23,23,23,23,23,23,200,200,200,200,200,200
1617120338.570842,22,22,22,22,22,22,200,200,200,200,200,200
1617120338.6326778,21,21,21,21,21,21,200,200,200,200,200,200
1617120338.7104704,20,20,20,20,20,20,199,199,199,199,199,199
1617120338.7962415,20,20,20,20,20,20,199,199,199,199,199,199
1617120338.860827,19,19,19,19,19,19,199,199,199,199,199,199
1617120338.9423375,18,18,18,18,18,18,198,198,198,198,198,198
1617120339.0092554,18,18,18,18,18,18,198,198,198,198,198,198
1617120339.0680993,17,17,17,17,17,17,198,198,198,198,198,198
1617120339.130838,16,16,16,16,16,16,197,197,197,197,197,197
1617120339.195667,16,16,16,16,16,16,197,197,197,197,197,197
1617120339.2675118,15,15,15,15,15,15,197,197,197,197,197,197
1617120339.3392994,14,14,14,14,14,14,196,196,196,196,196,196
1617120339.4029346,14,14,14,14,14,14,196,196,196,196,196,196
1617120339.4677608,13,13,13,13,13,13,196,196,196,196,196,196
1617120339.5325024,13,13,13,13,13,13,195,195,195,195,195,195
1617120339.5953343,12,12,12,12,12,12,195,195,195,195,195,195
1617120339.6751208,11,11,11,11,11,11,195,195,195,195,195,195
1617120339.7399485,11,11,11,11,11,11,194,194,194,194,194,194
1617120339.8028088,10,10,10,10,10,10,194,194,194,194,194,194
1617120339.8700855,9,9,9,9,9,9,194,194,194,194,194,194
1617120339.933945,9,9,9,9,9,9,193,193,193,193,193,193
1617120340.0077188,8,8,8,8,8,8,193,193,193,193,193,193
1617120340.0765364,7,7,7,7,7,7,193,193,193,193,193,193
1617120340.1483717,7,7,7,7,7,7,192,192,192,192,192,192
1617120340.20522,6,6,6,6,6,6,192,192,192,192,192,192
1617120340.2670705,6,6,6,6,6,6,192,192,192,192,192,192
1617120340.3338938,5,5,5,5,5,5,191,191,191,191,191,191
1617120340.389745,5,5,5,5,5,5,191,191,191,191,191,191
1617120340.4750166,4,4,4,4,4,4,191,191,191,191,191,191
1617120340.5418396,3,3,3,3,3,3,190,190,190,190,190,190
1617120340.602677,3,3,3,3,3,3,190,190,190,190,190,190
1617120340.6665335,2,2,2,2,2,2,190,190,190,190,190,190
1617120340.7423034,1,1,1,1,1,1,189,189,189,189,189,189
1617120340.8136768,0,0,0,0,0,0,189,189,189,189,189,189
1617120340.875513,0,0,0,0,0,0,189,189,189,189,189,189
1617120340.941337,1,1,1,1,1,1,188,188,188,188,188,188
1617120341.0031722,1,1,1,1,1,1,188,188,188,188,188,188
1617120341.0829642,2,2,2,2,2,2,188,188,188,188,188,188
1617120341.1478202,3,3,3,3,3,3,187,187,187,187,187,187
1617120341.2106507,4,4,4,4,4,4,187,187,187,187,187,187
1617120341.276448,4,4,4,4,4,4,187,187,187,187,187,187
1617120341.3402762,5,5,5,5,5,5,186,186,186,186,186,186
1617120341.4031088,5,5,5,5,5,5,186,186,186,186,186,186
1617120341.4830225,6,6,6,6,6,6,186,186,186,186,186,186
1617120341.5478506,7,7,7,7,7,7,185,185,185,185,185,185
1617120341.609898,7,7,7,7,7,7,185,185,185,185,185,185
1617120341.6751895,8,8,8,8,8,8,185,185,185,185,185,185
1617120341.7410154,9,9,9,9,9,9,184,184,184,184,184,184
1617120341.8188767,9,9,9,9,9,9,184,184,184,184,184,184
1617120341.8827066,10,10,10,10,10,10,184,184,184,184,184,184
1617120341.9465272,10,10,10,10,10,10,183,183,183,183,183,183
1617120342.011334,11,11,11,11,11,11,183,183,183,183,183,183
1617120342.075164,12,12,12,12,12,12,183,183,183,183,183,183
1617120342.141481,12,12,12,12,12,12,182,182,182,182,182,182
1617120342.2192903,13,13,13,13,13,13,182,182,182,182,182,182
1617120342.284117,13,13,13,13,13,13,182,182,182,182,182,182
1617120342.3479466,14,14,14,14,14,14,181,181,181,181,181,181
1617120342.4117763,15,15,15,15,15,15,181,181,181,181,181,181
1617120342.4763138,15,15,15,15,15,15,181,181,181,181,181,181
1617120342.5576653,16,16,16,16,16,16,180,180,180,180,180,180
1617120342.615537,17,17,17,17,17,17,180,180,180,180,180,180
1617120342.6836255,17,17,17,17,17,17,180,180,180,180,180,180
1617120342.7464592,18,18,18,18,18,18,179,179,179,179,179,179
1617120342.8046591,18,18,18,18,18,18,179,179,179,179,179,179
1617120342.8761077,19,19,19,19,19,19,179,179,179,179,179,179
1617120342.9567282,20,20,20,20,20,20,179,179,179,179,179,179
1617120343.0202408,20,20,20,20,20,20,178,178,178,178,178,178
1617120343.0823827,21,21,21,21,21,21,178,178,178,178,178,178
1617120343.1477146,22,22,22,22,22,22,178,178,178,178,178,178
1617120343.2110517,22,22,22,22,22,22,177,177,177,177,177,177
1617120343.290873,23,23,23,23,23,23,177,177,177,177,177,177
1617120343.3556664,23,23,23,23,23,23,177,177,177,177,177,177
1617120343.4198387,24,24,24,24,24,24,176,176,176,176,176,176
1617120343.4776838,25,25,25,25,25,25,176,176,176,176,176,176
1617120343.5484948,25,25,25,25,25,25,176,176,176,176,176,176
1617120343.6125317,26,26,26,26,26,26,175,175,175,175,175,175
1617120343.6923182,26,26,26,26,26,26,175,175,175,175,175,175
1617120343.7551506,27,27,27,27,27,27,175,175,175,175,175,175
1617120343.820481,28,28,28,28,28,28,174,174,174,174,174,174
1617120343.8833137,28,28,28,28,28,28,174,174,174,174,174,174
1617120343.9471433,29,29,29,29,29,29,174,174,174,174,174,174
1617120344.0309188,30,30,30,30,30,30,173,173,173,173,173,173
1617120344.1166892,31,31,31,31,31,31,173,173,173,173,173,173
1617120344.179714,31,31,31,31,31,31,173,173,173,173,173,173
1617120344.2534218,32,32,32,32,32,32,172,172,172,172,172,172
1617120344.3162544,32,32,32,32,32,32,172,172,172,172,172,172
1617120344.3960404,33,33,33,33,33,33,172,172,172,172,172,172
1617120344.4594393,34,34,34,34,34,34,171,171,171,171,171,171
1617120344.5232685,35,35,35,35,35,35,171,171,171,171,171,171
1617120344.5880957,35,35,35,35,35,35,171,171,171,171,171,171
1617120344.654917,36,36,36,36,36,36,170,170,170,170,170,170
1617120344.7601643,37,37,37,37,37,37,170,170,170,170,170,170
1617120344.8280191,37,37,37,37,37,37,169,169,169,169,169,169
1617120344.8913827,38,38,38,38,38,38,169,169,169,169,169,169
1617120344.9562097,39,39,39,39,39,39,169,169,169,169,169,169
1617120345.0207489,39,39,39,39,39,39,168,168,168,168,168,168
1617120345.085577,40,40,40,40,40,40,168,168,168,168,168,168
1617120345.1648684,40,40,40,40,40,40,168,168,168,168,168,168
1617120345.226703,41,41,41,41,41,41,167,167,167,167,167,167
1617120345.2915297,42,42,42,42,42,42,167,167,167,167,167,167
1617120345.354384,42,42,42,42,42,42,167,167,167,167,167,167
1617120345.4189985,43,43,43,43,43,43,167,167,167,167,167,167
1617120345.4917755,43,43,43,43,43,43,166,166,166,166,166,166
1617120345.5645316,44,44,44,44,44,44,166,166,166,166,166,166
1617120345.6273649,45,45,45,45,45,45,165,165,165,165,165,165
1617120345.691605,45,45,45,45,45,45,165,165,165,165,165,165
1617120345.7574303,46,46,46,46,46,46,165,165,165,165,165,165
1617120345.8182979,46,46,46,46,46,46,165,165,165,165,165,165
1617120345.8996568,47,47,47,47,47,47,164,164,164,164,164,164
1617120345.9634507,48,48,48,48,48,48,164,164,164,164,164,164
1617120346.0269978,49,49,49,49,49,49,163,163,163,163,163,163
1617120346.0918598,49,49,49,49,49,49,163,163,163,163,163,163
1617120346.161674,50,50,50,50,50,50,163,163,163,163,163,163
1617120346.2364726,51,51,51,51,51,51,162,162,162,162,162,162
1617120346.3218098,51,51,51,51,51,51,162,162,162,162,162,162
1617120346.3965816,52,52,52,52,52,52,162,162,162,162,162,162
1617120346.4599543,53,53,53,53,53,53,161,161,161,161,161,161
1617120346.5228176,53,53,53,53,53,53,161,161,161,161,161,161
1617120346.6033762,54,54,54,54,54,54,161,161,161,161,161,161
1617120346.668203,55,55,55,55,55,55,160,160,160,160,160,160
1617120346.732032,55,55,55,55,55,55,160,160,160,160,160,160
1617120346.7938955,56,56,56,56,56,56,160,160,160,160,160,160
1617120346.8587117,56,56,56,56,56,56,159,159,159,159,159,159
1617120346.9244282,57,57,57,57,57,57,159,159,159,159,159,159
1617120347.005244,57,57,57,57,57,57,159,159,159,159,159,159
1617120347.0680454,58,58,58,58,58,58,158,158,158,158,158,158
1617120347.1312103,59,59,59,59,59,59,158,158,158,158,158,158
1617120347.195042,59,59,59,59,59,59,158,158,158,158,158,158
1617120347.2598686,60,60,60,60,60,60,157,157,157,157,157,157
1617120347.3376887,60,60,60,60,60,60,157,157,157,157,157,157
1617120347.4144542,61,61,61,61,61,61,157,157,157,157,157,157
1617120347.4693084,62,62,62,62,62,62,156,156,156,156,156,156
1617120347.531511,62,62,62,62,62,62,156,156,156,156,156,156
1617120347.5983343,63,63,63,63,63,63,156,156,156,156,156,156
1617120347.660208,63,63,63,63,63,63,155,155,155,155,155,155
1617120347.7414112,64,64,64,64,64,64,155,155,155,155,155,155
1617120347.8029282,65,65,65,65,65,65,155,155,155,155,155,155
1617120347.8677275,65,65,65,65,65,65,154,154,154,154,154,154
1617120347.9315572,66,66,66,66,66,66,154,154,154,154,154,154
1617120348.0004554,67,67,67,67,67,67,154,154,154,154,154,154
1617120348.076223,67,67,67,67,67,67,153,153,153,153,153,153
1617120348.1380575,68,68,68,68,68,68,153,153,153,153,153,153
1617120348.2038815,68,68,68,68,68,68,153,153,153,153,153,153
1617120348.2687087,69,69,69,69,69,69,152,152,152,152,152,152
1617120348.350518,70,70,70,70,70,70,152,152,152,152,152,152
1617120348.4293075,70,70,70,70,70,70,152,152,152,152,152,152
1617120348.4831355,71,71,71,71,71,71,151,151,151,151,151,151
1617120348.569938,72,72,72,72,72,72,151,151,151,151,151,151
1617120348.6372344,72,72,72,72,72,72,150,150,150,150,150,150
1617120348.6950817,73,73,73,73,73,73,150,150,150,150,150,150
1617120348.7638974,73,73,73,73,73,73,150,150,150,150,150,150
1617120348.8436842,74,74,74,74,74,74,149,149,149,149,149,149
1617120348.9085107,75,75,75,75,75,75,149,149,149,149,149,149
1617120348.9723408,76,76,76,76,76,76,149,149,149,149,149,149
1617120349.0369103,76,76,76,76,76,76,148,148,148,148,148,148
1617120349.101765,77,77,77,77,77,77,148,148,148,148,148,148
1617120349.1795526,78,78,78,78,78,78,148,148,148,148,148,148
1617120349.2434294,78,78,78,78,78,78,147,147,147,147,147,147
1617120349.31028,79,79,79,79,79,79,147,147,147,147,147,147
1617120349.3661358,79,79,79,79,79,79,147,147,147,147,147,147
1617120349.435915,80,80,80,80,80,80,147,147,147,147,147,147
1617120349.5257034,81,81,81,81,81,81,146,146,146,146,146,146
1617120349.596486,82,82,82,82,82,82,146,146,146,146,146,146
1617120349.6563487,82,82,82,82,82,82,145,145,145,145,145,145
1617120349.7241771,83,83,83,83,83,83,145,145,145,145,145,145
1617120349.8019657,84,84,84,84,84,84,145,145,145,145,145,145
1617120349.8808875,84,84,84,84,84,84,144,144,144,144,144,144
1617120349.947708,85,85,85,85,85,85,144,144,144,144,144,144
1617120350.0105417,86,86,86,86,86,86,144,144,144,144,144,144
1617120350.0753708,86,86,86,86,86,86,143,143,143,143,143,143
1617120350.1391962,87,87,87,87,87,87,143,143,143,143,143,143
1617120350.2059956,87,87,87,87,87,87,143,143,143,143,143,143
1617120350.284779,88,88,88,88,88,88,142,142,142,142,142,142
1617120350.3471787,89,89,89,89,89,89,142,142,142,142,142,142
1617120350.4120257,89,89,89,89,89,89,142,142,142,142,142,142
1617120350.4768593,90,90,90,90,90,90,141,141,141,141,141,141
1617120350.5389888,90,90,90,90,90,90,141,141,141,141,141,141
1617120350.618779,91,91,91,91,91,91,141,141,141,141,141,141
1617120350.6855984,92,92,92,92,92,92,140,140,140,140,140,140
